!AIVDM,1,1,,B,?03OvjAGa7ipD00,2*45
$APHDM,079.20,M*0F
!AIVDM,1,1,,B,15NM><g000o?=eFKqLG82mv00@0T,0*3D
$GPGGA,221303.000,4857.6606,N,12303.0496,W,1,09,0.9,-7.7,M,-16.9,M,,0000*41
$GPRMC,221301.00,A,4857.66296,N,12303.05256,W,3.369,104.56,090416,,,A*78
$GPGSA,A,3,30,28,07,13,08,11,05,27,17,,,,1.4,0.9,1.1*3C
!AIVDM,1,1,,A,34eH@`hOh9G<kQ8L=<l79S800000,0*57
!AIVDM,1,1,,A,403Ovj1v14n=1o>@4tKp@Tg02<78,0*4A
$GPRMC,221303.000,A,4857.6606,N,12303.0496,W,2.91,105.65,090416,,,A*7A
!AIVDM,1,1,,B,403Ovj1v14n=1o>@4tKp@Tg02<78,0*49
$APHDM,079.80,M*05
$SNAPB,A,A,0.0000,L,N,V,V,80.0000,M,001,80.0000,M,80.0000,M*08
!AIVDM,1,1,,A,403Own1v14n=1o;49HKRt;g0280j,0*27
!AIVDM,1,1,,A,D03Ovj06IN>6;pfGL00Nfp0,2*77
!AIVDM,1,1,,B,D03OvjP6IN>6<8fGL00Nfp0,2*5B
!AIVDM,1,1,,A,D03Ovj@?1N>6:pffp00Nfp0,2*6A
$APHDM,081.10,M*0B
!AIVDM,1,1,,A,D03OvjPDIN>6;`fGL00Nfp0,2*75
$GPGGA,221304.000,4857.6604,N,12303.0484,W,1,09,0.9,-7.9,M,-16.9,M,,0000*49
!AIVDM,1,1,,A,4030pCAv14n=1o;;NjL?3Po00D4r,0*74
$GPGSA,A,3,30,28,07,13,08,11,05,27,17,,,,1.4,0.9,1.1*3C
$GPGGA,221302.00,4857.66263,N,12303.05127,W,1,11,0.73,-7.6,M,-17.7,M,,*41
$GPRMC,221304.000,A,4857.6604,N,12303.0484,W,2.70,104.45,090416,,,A*70
!AIVDM,1,1,,B,14eG;l0027G;NE8Krp@1Di<40D13,0*74
!AIVDM,1,1,,A,4030p7iv14n=1o:s4BKl@jW000S:,0*4D
$SNAPB,A,A,0.0000,R,N,V,V,80.0000,M,001,80.0000,M,80.0000,M*16
$APHDM,082.40,M*0D
!AIVDM,1,1,,A,4030p81v14n=2o;V:<KtT1G00H1P,0*7A
!AIVDM,1,1,,B,14eGLtPP00G<l@JL=EUehwv40D3O,0*76
$GPGBS,221302.00,3.1,2.2,3.2,,,,*42
!AIVDM,1,1,,B,14eHHQ0P00o<MR0L=otqG?v426hl,0*29
$APHDM,083.20,M*0A
$GPGGA,221305.000,4857.6602,N,12303.0473,W,1,09,0.9,-7.6,M,-16.9,M,,0000*49
$GPGGA,221303.00,4857.66236,N,12303.05005,W,1,11,0.73,-7.6,M,-17.7,M,,*41
!AIVDM,1,1,,B,14eG;ihP01G<sDdL=8@ql?v60D3D,0*29
$GPGSA,A,3,30,28,07,13,08,11,05,27,17,,,,1.4,0.9,1.1*3C
$GPRMC,221305.000,A,4857.6602,N,12303.0473,W,3.12,104.06,090416,,,A*7D
!AIVDO,1,1,,,B5NVsf007=k;O=W0@712?wQUoP06,0*51
!AIVDM,1,1,,A,14eGkSh000o;4ejKo4Ha6WB20821,0*2D
$SNAPB,A,A,0.0000,L,N,V,V,80.0000,M,001,80.0000,M,80.0000,M*08
!AIVDM,1,1,,B,34eG;u002Vo<AePL2Mc8gFr60000,0*00
$APHDM,083.10,M*09
!AIVDM,1,1,,A,14eGdBh01Io9jnrL0Rc`t7662826,0*47
$GPGBS,221303.00,3.0,2.2,3.2,,,,*42
!AIVDM,1,1,,B,14eI18gP00G<FAVL=;`u=wv6282?,0*4A
$GPGGA,221306.000,4857.6599,N,12303.0460,W,1,09,0.9,-7.7,M,-16.9,M,,0000*48
$GPGGA,221304.00,4857.66218,N,12303.04890,W,1,11,0.73,-7.4,M,-17.7,M,,*4D
$APHDM,082.30,M*0A
!AIVDM,1,1,,A,?03Ovj1HHEo0D00,2*24
$GPGSA,A,3,30,28,07,13,08,11,05,27,17,,,,1.4,0.9,1.1*3C
$GPGBS,221304.00,3.0,2.2,3.2,,,,*45
$GPGSV,3,1,12,30,84,033,31,28,59,233,31,07,55,097,25,13,36,307,39*74
!AIVDM,1,1,,B,B4eH?p00>mk:wM70C;e:kwR5oP06,0*6B
$SNAPB,A,A,0.0000,R,N,V,V,80.0000,M,001,80.0000,M,80.0000,M*16
!AIVDM,1,1,,B,14eHnF0000o<c1>L=5fqO74:06hl,0*3D
$GPGSV,3,2,12,08,34,056,32,11,16,106,40,05,16,262,35,27,11,034,29*79
$GPGGA,221305.00,4857.66200,N,12303.04769,W,1,11,0.73,-7.4,M,-17.7,M,,*4C
$GPGSV,3,3,12,17,08,182,38,15,04,322,29,51,31,159,35,26,61,285,*7D
$APHDM,081.60,M*0C
$GPRMC,221306.000,A,4857.6599,N,12303.0460,W,3.22,105.67,090416,,,A*78
!AIVDM,1,1,,A,14eGMH@P01G<AI6L3ELoB?v800RH,0*60
!AIVDO,1,1,,,B5NVsf007ek;OIW0@6i0CwRUoP06,0*59
$GPGGA,221307.000,4857.6595,N,12303.0449,W,1,09,0.9,-7.8,M,-16.9,M,,0000*41
!AIVDM,1,1,,B,14eGMEEP1TG=<=2L8;OIL?v80H3?,0*33
!AIVDM,1,1,,A,34eGEDP000o<MQ@L=oEShh2:2P00,0*0F
$GPGBS,221305.00,3.0,2.1,3.2,,,,*47
$GPGSA,A,3,30,28,07,13,08,11,05,27,17,,,,1.4,0.9,1.1*3C
$APHDM,081.30,M*09
$GPRMC,221307.000,A,4857.6595,N,12303.0449,W,2.73,107.76,090416,,,A*79
!AIVDM,1,1,,A,34hBcC1001o<0:JL<t8WW98<0Dur,0*4A
!AIVDM,1,1,,B,14eGEC@019G<oOvKtugdsb:806hl,0*09
$SNAPB,A,A,0.0000,L,N,V,V,80.0000,M,001,80.0000,M,80.0000,M*08
$GPGGA,221306.00,4857.66174,N,12303.04645,W,1,11,0.73,-7.4,M,-17.7,M,,*40
!AIVDM,1,1,,A,14eGeM?P00G=FnPL9g`@sOv<0@3f,0*25
$APHDM,080.90,M*02
!AIVDM,1,1,,B,14eG;u@000o;3rdKo5vugb0<0H3i,0*74
$GPGBS,221306.00,3.0,2.1,3.2,,,,*44
$GPGGA,221308.000,4857.6593,N,12303.0438,W,1,09,0.9,-7.6,M,-16.9,M,,0000*40
!AIVDM,2,1,1,A,54eI0B42Dd5l<HsO?S9==B0<50Th4pv22222220O1P:4740Ht00000000000,0*71
$GPGSA,A,3,30,28,07,13,08,11,05,27,17,,,,1.4,0.9,1.1*3C
!AIVDM,2,2,1,A,00000000000,2*25
$GPRMC,221308.000,A,4857.6593,N,12303.0438,W,2.93,106.50,090416,,,A*7D
!AIVDM,1,1,,B,14eG;o@000o<F3`L2`QdUFl<26hl,0*08
$APHDM,080.50,M*0E
$SNAPB,A,A,0.0000,R,N,V,V,80.0000,M,001,80.0000,M,80.0000,M*16
!AIVDM,1,1,,B,ENkb9Ma9Q@@@@@@@@@@@@@@@@@@;W@2v=hvOP00003vP000,2*29
$GPGGA,221307.00,4857.66142,N,12303.04529,W,1,11,0.73,-7.4,M,-17.7,M,,*4D
!AIVDM,1,1,,B,14eGsHh001o<OTdL<sfJiUj:0@4C,0*08
$APHDM,080.00,M*0B
!AIVDO,1,1,,,B5NVsf007ek;OUW0@6I3WwSUoP06,0*73
$GPGGA,221309.000,4857.6591,N,12303.0425,W,1,09,0.9,-7.5,M,-16.9,M,,0000*4C
!AIVDM,1,1,,A,34eH@`hP@;G<kQ8L=<l74S6>00w1,0*29
!AIVDM,1,1,,B,14eGMH0P0;G<P?vL=enSL?v<06hl,0*1C
$GPGSA,A,3,30,28,07,13,08,11,05,27,17,,,,1.4,0.9,1.1*3C
$GPGBS,221307.00,2.9,2.1,3.2,,,,*4D
$GPRMC,221309.000,A,4857.6591,N,12303.0425,W,3.06,106.31,090416,,,A*78
!AIVDM,1,1,,A,85MwpHiKf6bb``7b@jk`qD@gG1n1oK9w?GtIAgcNjGS4:OgfmK7T,0*4B
$APHDM,079.70,M*0A
$SNAPB,A,A,0.0000,L,N,V,V,80.0000,M,001,80.0000,M,80.0000,M*08
!AIVDM,1,1,,A,14eGmkgP00G<6;BL6sp`v?vB2<2i,0*35
$GPGGA,221308.00,4857.66115,N,12303.04413,W,1,11,0.73,-7.3,M,-17.7,M,,*4F
$GPGLL,4857.66115,N,12303.04413,W,221308.00,A,A*7B
$APHDM,079.30,M*0E
$GPGBS,221308.00,2.9,2.1,3.2,,,,*42
$GPGGA,221310.000,4857.6588,N,12303.0413,W,1,09,0.9,-7.6,M,-16.9,M,,0000*4A
$GPGGA,221309.00,4857.66091,N,12303.04295,W,1,11,0.81,-7.1,M,-17.7,M,,*44
$GPGSA,A,3,30,28,07,13,08,11,05,27,17,,,,1.4,0.9,1.1*3C
!AIVDM,1,1,,B,14eGMDhP01G<NMjL=r=V:?v@00SA,0*69
$GPRMC,221310.000,A,4857.6588,N,12303.0413,W,3.08,107.54,090416,,,A*71
!AIVDM,1,1,,B,14eG;phP37o8p52L:SABQwvB085M,0*11
$SNAPB,A,A,0.0000,R,N,V,V,80.0000,M,001,80.0000,M,80.0000,M*16
!AIVDO,1,1,,,B5NVsf007Mk;Oi70@652GwTUoP06,0*6D
$APHDM,079.10,M*0C
$GPGLL,4857.66091,N,12303.04295,W,221309.00,A,A*7F
!AIVDM,1,1,,A,14eGMFhP00G<MQVL=lHGOwv@00S4,0*78
$GPGBS,221309.00,2.9,2.0,3.1,,,,*41
!AIVDM,1,1,,A,34eG;tPPAUo8ufnL8uP:Ip>B0Pr0,0*7E
$GPGGA,221311.000,4857.6585,N,12303.0400,W,1,09,0.9,-7.5,M,-16.9,M,,0000*47
!AIVDM,1,1,,A,14eGLNPP0Po:j72LE3RMUOvB2l10,0*0D
$APHDM,079.20,M*0F
!AIVDM,1,1,,A,34eG;oh01eo;aIdL@McSL2b@0000,0*6E
$GPGSA,A,3,30,28,07,13,08,11,05,27,17,,,,1.4,0.9,1.1*3C
$GPGSV,3,1,12,30,84,033,32,28,59,233,31,07,55,097,28,13,36,307,35*76
$GPGGA,221310.00,4857.66061,N,12303.04171,W,1,11,0.73,-7.1,M,-17.7,M,,*47
!AIVDM,1,1,,A,?03Ovj1GamC`D00,2*56
$SNAPB,A,A,0.0000,L,N,V,V,80.0000,M,001,80.0000,M,80.0000,M*08
!AIVDM,1,1,,A,?03Ovj1;F6eDD00,2*54
$GPGSV,3,2,12,08,34,056,30,11,16,106,40,05,16,262,37,27,11,034,35*74
$GPGLL,4857.66061,N,12303.04171,W,221310.00,A,A*71
$GPGSV,3,3,12,17,08,182,36,15,04,322,33,51,31,159,30,26,61,285,*7D
$APHDM,080.00,M*0B
$GPRMC,221311.000,A,4857.6585,N,12303.0400,W,3.04,107.26,090416,,,A*76
$GPGBS,221310.00,2.8,2.0,3.1,,,,*48
!AIVDM,1,1,,B,14eGLuwP00G<Pl4L=2etmgvF0@6J,0*0B
$GPGGA,221312.000,4857.6584,N,12303.0389,W,1,09,0.9,-7.4,M,-16.9,M,,0000*42
!AIVDM,1,1,,A,15NM><g000o?=ePKqLGKPUvD0@6K,0*6C
$GPRMC,221311.00,A,4857.66034,N,12303.04047,W,3.104,107.58,090416,,,A*74
$APHDM,080.80,M*03
$GPGSA,A,3,30,28,07,13,08,11,05,27,17,,,,1.4,0.9,1.1*3C
$GPRMC,221312.000,A,4857.6584,N,12303.0389,W,2.68,103.85,090416,,,A*74
$GPGGA,221311.00,4857.66034,N,12303.04047,W,1,03,13.94,-7.1,M,-17.7,M,,*7A
!AIVDO,1,1,,,B5NVsf007uk;OuW0@5e3CwUUoP06,0*7E
$SNAPB,A,A,0.0000,R,N,V,V,80.0000,M,001,80.0000,M,80.0000,M*16
!AIVDM,1,1,,B,34eG;u002bo<AQHL2LV8c6rF00UP,0*2D
$GPGLL,4857.66034,N,12303.04047,W,221311.00,A,A*74
$APHDM,081.90,M*03
$GPGBS,221311.00,,,,,,,*6D
!AIVDM,1,1,,B,14eG;u002bo<AQHL2LV8c6rF0000,0*2A
$GPGGA,221313.000,4857.6583,N,12303.0377,W,1,09,0.9,-7.4,M,-16.9,M,,0000*45
!AIVDM,1,1,,A,34eG;qm000o<EwNL2bllSADF0DRJ,0*5B
!AIVDM,1,1,,B,4030pCAv14n=;o;;NjL?3Po00D4t,0*7B
$GPGSA,A,3,30,28,07,13,08,11,05,27,17,,,,1.4,0.9,1.1*3C
$GPRMC,221313.000,A,4857.6583,N,12303.0377,W,2.92,102.65,090416,,,A*79
$GPGGA,221312.00,4857.65991,N,12303.04071,W,1,05,1.23,-7.2,M,-17.7,M,,*43
$APHDM,082.20,M*0B
!AIVDM,1,1,,B,4030p7iv14n=;o:s4BKl@jW00L5A,0*25
$SNAPB,A,A,0.0000,L,N,V,V,80.0000,M,001,80.0000,M,80.0000,M*08
!AIVDM,1,1,,B,4030p81v14n=<o;V:<KtT1G00H7G,0*66
!AIVDM,1,1,,B,34eG;lh01?o:`JtKkrR5e4VD00rh,0*66
$GPGBS,221312.00,21.6,26.7,9.5,,,,*4A
$APHDM,081.80,M*02
!AIVDM,1,1,,A,B4eHldh00=k3F071dLH4OwV5oP06,0*3E
!AIVDM,1,1,,A,15N705PP1MG;d><L3JTd3OvJ20T3,0*18
$GPGGA,221314.000,4857.6581,N,12303.0364,W,1,09,0.9,-7.4,M,-16.9,M,,0000*42
!AIVDM,1,1,,A,34eG;u002bo<AO4L2LI8cVrH01i1,0*61
$GPGSA,A,3,30,28,07,13,08,11,05,27,17,,,,1.4,0.9,1.1*3C
!AIVDM,1,1,,A,14eG;sg000o<V9VL=bnawF`H00Ru,0*56
$GPRMC,221314.000,A,4857.6581,N,12303.0364,W,3.11,106.62,090416,,,A*77
!AIVDM,1,1,,A,14eGLtPP00G<l?pL=EUurgvH087W,0*36
$APHDM,080.90,M*02
$SNAPB,A,A,0.0000,R,N,V,V,80.0000,M,001,80.0000,M,80.0000,M*16
$GPGGA,221313.00,4857.65964,N,12303.04091,W,1,05,1.23,-6.7,M,-17.7,M,,*42
!AIVDM,1,1,,A,15NVR@0000o:c;HKu5If46FJ06hl,0*45
!AIVDM,1,1,,B,14eGHohP01G9B2vL29GdhgvL00SC,0*25
!AIVDM,1,1,,B,34eG;tPPAUo8uaPL8uLrG8:J0PtA,0*2D
$APHDM,079.70,M*0A
$GPGGA,221315.000,4857.6578,N,12303.0352,W,1,09,0.9,-7.4,M,-16.9,M,,0000*40
!AIVDO,1,1,,,B5NVsf007mk;OsW0@5A0cwVUoP06,0*64
$GPGBS,221313.00,14.2,20.1,5.7,,,,*47
!AIVDM,1,1,,A,14eG;lP01No:7`<KubQ9W7lHP883,0*64
$GPGSA,A,3,30,28,07,13,08,11,05,27,17,,,,1.4,0.9,1.1*3C
!AIVDM,1,1,,A,14eGgch000o<OSHL<sfmgmnF0<2R,0*1C
$GPRMC,221315.000,A,4857.6578,N,12303.0352,W,3.02,106.97,090416,,,A*7D
$SNAPB,A,A,0.0000,L,N,V,V,80.0000,M,001,80.0000,M,80.0000,M*08
$GPRMC,221314.00,A,4857.65930,N,12303.03945,W,3.156,107.35,090416,,,A*7F
$APHDM,079.10,M*0C
$GPGGA,221314.00,4857.65930,N,12303.03945,W,1,05,1.23,-6.5,M,-17.7,M,,*41
!AIVDM,1,1,,A,34eH@`hOh9G<kQ8L=<l7P36J00uP,0*0F
$GPGLL,4857.65930,N,12303.03945,W,221314.00,A,A*73
$GPGGA,221316.000,4857.6575,N,12303.0340,W,1,09,0.9,-7.4,M,-16.9,M,,0000*4D
$APHDM,079.20,M*0F
$GPGBS,221314.00,11.1,17.0,4.6,,,,*43
!AIVDM,1,1,,A,14eHnF0000o<c1@L=5fWTo6N0<31,0*5F
$GPGSA,A,3,30,28,07,13,08,11,05,27,17,,,,1.4,0.9,1.1*3C
!AIVDM,1,1,,B,14eGMH@P01G<AI4L3EM7AwvJ0<0m,0*4A
$GPGSV,3,1,12,30,84,035,33,28,59,233,30,07,55,097,32,13,36,307,37*79
!AIVDM,1,1,,A,14eHHQ@000G<AKTL3EwGsPrL0H8g,0*72
$SNAPB,A,A,0.0000,R,N,V,V,80.0000,M,001,80.0000,M,80.0000,M*16
!AIVDM,1,1,,B,34eGEDP000o<MQ@L=oEi5@2L2P00,0*35
$GPGSV,3,2,12,08,34,056,32,11,17,106,40,05,15,262,34,27,10,034,38*7B
$GPGSV,3,3,12,17,08,182,33,15,04,322,30,51,31,159,26,26,61,285,*7C
$GPGGA,221315.00,4857.65889,N,12303.03771,W,1,05,1.23,-6.7,M,-17.7,M,,*48
$APHDM,079.80,M*05
$GPRMC,221316.000,A,4857.6575,N,12303.0340,W,2.63,105.85,090416,,,A*76
!AIVDM,2,1,2,B,54eGMH@1?R>62222220>pRr0<5@E>1R22222220l189436Bl0:3c`5PC`888,0*1C
!AIVDM,2,2,2,B,88888888880,2*25
$GPGGA,221317.000,4857.6574,N,12303.0329,W,1,09,0.9,-7.5,M,-16.9,M,,0000*43
!AIVDM,1,1,,A,35N7OaQ000G>>uPKt@fh57rL0000,0*39
$APHDM,080.50,M*0E
!AIVDM,1,1,,B,34eG;u002do<AK<L2L38e6rN0000,0*2B
$GPGSA,A,3,30,28,07,13,08,11,05,27,17,,,,1.4,0.9,1.1*3C
!AIVDM,1,1,,A,14`Uuk@2i3o<N>bL=Q6;?I8N089<,0*41
$GPRMC,221317.000,A,4857.6574,N,12303.0329,W,2.72,103.48,090416,,,A*7E
$GPGBS,221315.00,9.6,14.5,4.2,,,,*7E
$SNAPB,A,A,0.0000,L,N,V,V,80.0000,M,001,80.0000,M,80.0000,M*08
!AIVDM,1,1,,A,14eGEC@018G<oKHKtvKdsr:L0@9E,0*74
$GPRMC,221316.00,A,4857.65868,N,12303.03491,W,2.889,103.75,090416,,,A*7F
$APHDM,081.20,M*08
$GPGGA,221316.00,4857.65868,N,12303.03491,W,1,11,0.73,-7.0,M,-17.7,M,,*4E
$GPGGA,221318.000,4857.6571,N,12303.0318,W,1,08,0.9,-7.5,M,-16.9,M,,0000*4A
$GPGLL,4857.65868,N,12303.03491,W,221316.00,A,A*79
$GPGBS,221316.00,8.1,8.9,3.9,,,,*46
!AIVDM,1,1,,B,B5Mtdr00Dek8A=709o?2sw`UWP06,0*1F
$GPGSA,A,3,30,28,13,08,11,05,27,17,,,,,1.5,0.9,1.2*39
$APHDM,081.20,M*08
$GPRMC,221318.000,A,4857.6571,N,12303.0318,W,3.06,109.14,090416,,,A*77
$GPRMC,221317.00,A,4857.65878,N,12303.03388,W,2.743,100.05,090416,,,D*78
$SNAPB,A,A,0.0000,R,N,V,V,80.0000,M,001,80.0000,M,80.0000,M*16
$GPGGA,221317.00,4857.65878,N,12303.03388,W,2,11,0.73,-6.9,M,-17.7,M,,0000*4A
!AIVDM,1,1,,A,34eG;u002eo<AHnL2KmpdnrP00Wh,0*11
!AIVDM,1,1,,A,14eG;o@000o<F3`L2`QbfFlR26hl,0*50
$APHDM,080.70,M*0C
!AIVDM,1,1,,A,14eG;th021o;69@Kou2u;rTR0H:?,0*2A
$GPGGA,221319.000,4857.6567,N,12303.0306,W,1,09,0.9,-7.6,M,-16.9,M,,0000*41
$GPGLL,4857.65878,N,12303.03388,W,221317.00,A,D*73
$GPGBS,221317.00,6.8,6.7,3.7,,,,*4E
$GPGSA,A,3,30,28,07,13,08,11,05,27,17,,,,1.4,0.9,1.1*3C
!AIVDM,1,1,,B,14eGsHh000o<OTbL<sfs>EjN0@:I,0*01
$APHDM,079.90,M*04
$GPRMC,221319.000,A,4857.6567,N,12303.0306,W,3.18,109.65,090416,,,A*77
$GPRMC,221318.00,A,4857.65854,N,12303.03271,W,3.083,106.72,090416,,,D*72
$SNAPB,A,A,0.0000,L,N,V,V,80.0000,M,001,80.0000,M,80.0000,M*08
!AIVDM,1,1,,B,14eGEB0000o<k<fL7f0eNSHR08:c,0*79
$GPGGA,221318.00,4857.65854,N,12303.03271,W,2,11,0.73,-6.7,M,-17.7,M,,0000*42
$GPGLL,4857.65854,N,12303.03271,W,221318.00,A,D*75
$APHDM,079.40,M*09
$GPGBS,221318.00,6.2,5.7,3.5,,,,*4A
$GPGGA,221320.000,4857.6564,N,12303.0293,W,1,09,0.9,-7.6,M,-16.9,M,,0000*45
$GPRMC,221319.00,A,4857.65830,N,12303.03108,W,3.249,108.52,090416,,,D*74
$GPGSA,A,3,30,28,07,13,08,11,05,27,17,,,,1.4,0.9,1.1*3C
!AIVDM,1,1,,B,176rbc0000G=EphL9>u@i0hT0<1I,0*2E
$GPRMC,221320.000,A,4857.6564,N,12303.0293,W,3.49,107.70,090416,,,A*7D
$GPGGA,221319.00,4857.65830,N,12303.03108,W,2,11,0.73,-6.6,M,-17.7,M,,0000*4D
$SNAPB,A,A,0.0000,R,N,V,V,80.0000,M,001,80.0000,M,80.0000,M*16
$APHDM,078.80,M*04
!AIVDM,1,1,,A,ENkb9Ma9Q@@@@@@@@@@@@@@@@@@;W@2v=hvOP00003vP000,2*2A
!AIVDO,1,1,,,B5NVsf008=k;PdW0@4M3owaUoP06,0*06
$GPGLL,4857.65830,N,12303.03108,W,221319.00,A,D*7B
!AIVDM,1,1,,B,14eGT`qP00o<<;VL6kS8hOv`2D2O,0*55
$GPGGA,221321.000,4857.6561,N,12303.0280,W,1,09,0.9,-7.7,M,-16.9,M,,0000*42
$APHDM,078.70,M*0B
!AIVDM,1,1,,A,14eGtN0P0bG<am8L=;QbEOv`08;S,0*43
$GPGBS,221319.00,5.6,4.8,3.3,,,,*44
$GPGSA,A,3,30,28,07,13,08,11,05,27,17,,,,1.4,0.9,1.1*3C
$GPGSV,3,1,12,30,84,035,30,28,59,233,27,07,55,097,27,13,36,307,29*77
$GPRMC,221320.00,A,4857.65796,N,12303.02972,W,3.306,107.13,090416,,,D*79
$SNAPB,A,A,0.0000,L,N,V,V,80.0000,M,001,80.0000,M,80.0000,M*08
$GPGGA,221320.00,4857.65796,N,12303.02972,W,2,10,0.81,-6.6,M,-17.7,M,,0000*4C
$GPGSV,3,2,12,08,34,056,37,11,17,106,40,05,15,262,35,27,10,034,37*70
$APHDM,078.90,M*05
$GPGSV,3,3,12,17,08,182,33,15,04,322,28,51,31,159,30,26,61,285,*72
$GPGLL,4857.65796,N,12303.02972,W,221320.00,A,D*76
$GPRMC,221321.000,A,4857.6561,N,12303.0280,W,3.04,106.19,090416,,,A*7C
$GPGBS,221320.00,5.3,4.4,3.3,,,,*47
$PSMDOV,1
!AIVDM,1,1,,A,14eGLuwP00G<PkrL=2eHI?v`06hl,0*21
!AIVDM,1,1,,A,403OvjAv14n=Do=cb<Knf1w026hl,0*3D
$GPGGA,221322.000,4857.6559,N,12303.0269,W,1,09,0.9,-7.9,M,-16.9,M,,0000*43
$APHDM,079.20,M*0F
$PSMDOV,1
!AIVDM,1,1,,B,403OvjAv14n=Do=cb<Knf1w026hl,0*3E
$GPGSA,A,3,30,28,07,13,08,11,05,27,17,,,,1.4,0.9,1.1*3C
$GPRMC,221321.00,A,4857.65770,N,12303.02841,W,3.157,105.28,090416,,,D*7D
$GPRMC,221322.000,A,4857.6559,N,12303.0269,W,2.73,105.26,090416,,,A*7D
!AIVDM,1,1,,A,403Ovj1v14n=Eo>@56Kp@U?02<78,0*24
$SNAPB,A,A,0.0000,R,N,V,V,80.0000,M,001,80.0000,M,80.0000,M*16
$GPGGA,221321.00,4857.65770,N,12303.02841,W,2,11,0.81,-6.6,M,-17.7,M,,0000*45
!AIVDM,1,1,,A,403OvjQv14n=Eo<AM2KlBMg02<1I,0*12
$APHDM,079.30,M*0E
!AIVDM,1,1,,B,403Ovj1v14n=Eo>@56Kp@U?02<78,0*27
!AIVDM,1,1,,B,403OvjQv14n=Eo<AM2KlBMg02<1I,0*11
$GPGGA,221323.000,4857.6556,N,12303.0256,W,1,09,0.9,-7.9,M,-16.9,M,,0000*41
!AIVDM,1,1,,B,?03OvjQ;F9rHD00,2*23
!AIVDM,1,1,,B,D03OvjANiN>5LPffqMhNfp0,2*30
$APHDM,079.40,M*09
$GPGSA,A,3,30,28,07,13,08,11,05,27,17,,,,1.4,0.9,1.1*3C
!AIVDM,1,1,,A,D03OvjAdiN>5L0ffqMhNfp0,2*79
$GPRMC,221323.000,A,4857.6556,N,12303.0256,W,2.96,106.28,090416,,,A*79
$GPGLL,4857.65770,N,12303.02841,W,221321.00,A,D*7E
$SNAPB,A,A,0.0000,L,N,V,V,80.0000,M,001,80.0000,M,80.0000,M*08
!AIVDO,1,1,,,B5NVsf008=k;Pr70@451owbUoP06,0*09
!AIVDM,1,1,,A,D03OvjQj9N>5LhfGMMhNfp0,2*72
$PSMDOV,1
!AIVDM,1,1,,B,D03Ovj1j9N>5LhfGMMhNfp0,2*11
$APHDM,079.90,M*04
$GPGBS,221321.00,5.1,4.2,3.3,,,,*42
!AIVDM,1,1,,A,14eG;u002go<AAtL2K=8bFrb0000,0*39
$GPGGA,221324.000,4857.6553,N,12303.0243,W,1,09,0.9,-7.8,M,-16.9,M,,0000*46
!AIVDM,1,1,,A,4030pCAv14n=Eo;;NjL?3Po00D4u,0*07
!AIVDM,1,1,,A,4030pD1v14n=Eo<L20L<nt700H<r,0*07
$GPGSA,A,3,30,28,07,13,08,11,05,27,17,,,,1.4,0.9,1.1*3C
$GPRMC,221322.00,A,4857.65751,N,12303.02737,W,2.723,105.62,090416,,,D*79
$GPRMC,221324.000,A,4857.6553,N,12303.0243,W,3.35,106.96,090416,,,A*72
$APHDM,079.80,M*05
!AIVDM,1,1,,A,4030p81v14n=Fo;V:<KtT1G00H=>,0*6C
$SNAPB,A,A,0.0000,R,N,V,V,80.0000,M,001,80.0000,M,80.0000,M*16
$GPGLL,4857.65751,N,12303.02737,W,221322.00,A,D*70
$GPGBS,221322.00,4.9,3.9,3.3,,,,*44
$GPRMC,221323.00,A,4857.65725,N,12303.02633,W,2.795,106.37,090416,,,D*70
$APHDM,079.70,M*0A
$GPGGA,221325.000,4857.6550,N,12303.0230,W,1,09,0.9,-7.7,M,-16.9,M,,0000*4F
$GPGGA,221323.00,4857.65725,N,12303.02633,W,2,11,0.73,-6.5,M,-17.7,M,,0000*42
$PSMDOV,1
!AIVDM,1,1,,B,14eGgch000o<OSJL<sfdomnb0@=b,0*7B
$GPGSA,A,3,30,28,07,13,08,11,05,27,17,,,,1.4,0.9,1.1*3C
!AIVDM,1,1,,B,35Mid9001Qo?<AtKpdE`bntf2000,0*05
$GPRMC,221325.000,A,4857.6550,N,12303.0230,W,3.22,106.61,090416,,,A*7A
!AIVDM,1,1,,A,14eGMH@P01G<AI6L3ELoR?vd00ST,0*31
$APHDM,079.30,M*0E
$SNAPB,A,A,0.0000,L,N,V,V,80.0000,M,001,80.0000,M,80.0000,M*08
$GPGLL,4857.65725,N,12303.02633,W,221323.00,A,D*77
$PSMDOV,1
$PSMDOV,1
$PSMDOV,1
!AIVDO,1,1,,,B5NVsf007=k;Q4W0@3m2SwcUoP06,0*40
$PSMDOV,1
!AIVDM,1,1,,A,14eGHohP02G9B2tL29HdFgvh0H=q,0*06
$GPGBS,221323.00,4.8,3.7,3.3,,,,*4A
$APHDM,078.70,M*0B
!AIVDM,1,1,,A,14eGdBh01Ho9jUBL0QJ`qW0f2@=s,0*66
$GPGGA,221326.000,4857.6548,N,12303.0218,W,1,09,0.9,-7.8,M,-16.9,M,,0000*40
$PSMDOV,1
$GPRMC,221324.00,A,4857.65699,N,12303.02522,W,3.092,105.78,090416,,,D*7B
$GPGSA,A,3,30,28,07,13,08,11,05,27,17,,,,1.4,0.9,1.1*3C
$GPGGA,221324.00,4857.65699,N,12303.02522,W,2,10,0.81,-6.5,M,-17.7,M,,0000*4C
$GPGSV,3,1,12,30,84,035,26,28,59,233,34,07,55,097,26,13,36,307,36*7D
$GPGLL,4857.65699,N,12303.02522,W,221324.00,A,D*75
$SNAPB,A,A,0.0000,R,N,V,V,80.0000,M,001,80.0000,M,80.0000,M*16
$GPGBS,221324.00,4.6,3.5,3.3,,,,*41
$APHDM,078.50,M*09
$GPGSV,3,2,12,08,34,056,36,11,17,106,41,05,15,262,33,27,10,034,39*78
$GPGSV,3,3,12,17,08,182,32,15,04,322,27,51,31,159,26,26,61,285,*7B
!AIVDM,1,1,,B,14eH0u0Oh2G94RtL7b:Q85Pj28>Q,0*21
$GPRMC,221326.000,A,4857.6548,N,12303.0218,W,2.97,105.51,090416,,,A*75
!AIVDM,1,1,,A,34eG;u002ho<A<LL2JeHd6th01n1,0*7C
$GPRMC,221325.00,A,4857.65672,N,12303.02390,W,3.386,104.65,090416,,,D*7B
$APHDM,078.60,M*0A
$GPGGA,221327.000,4857.6546,N,12303.0206,W,1,09,0.9,-7.8,M,-16.9,M,,0000*40
!AIVDO,1,1,,B,B5NVsf007uk;Q:70@3a2;wd5oP06,0*27
!AIVDM,1,1,,B,14eGEC@018G<oGBKtw3Lub<f0@>g,0*3F
$GPGSA,A,3,30,28,07,13,08,11,05,27,17,,,,1.4,0.9,1.1*3C
!AIVDM,1,1,,B,34eG<i5P00o:q?8KmdR7wwvh2000,0*28
$GPRMC,221327.000,A,4857.6546,N,12303.0206,W,2.80,105.16,090416,,,A*70
$GPGGA,221325.00,4857.65672,N,12303.02390,W,2,10,0.81,-6.5,M,-17.7,M,,0000*47
$SNAPB,A,A,0.0000,L,N,V,V,80.0000,M,001,80.0000,M,80.0000,M*08
!AIVDM,1,1,,B,14eGMm@P00G<c7BL=4fl;?vj06hl,0*0A
$APHDM,078.90,M*05
$PSMDOV,1
$GPGLL,4857.65672,N,12303.02390,W,221325.00,A,D*7E
$PSMDOV,1
!AIVDM,2,1,3,B,54eGLtP00000=WS;GN104<THT>0<PTDJ2222220l0p?433?E98Ti@E531H88,0*37
$GPGGA,221328.000,4857.6544,N,12303.0194,W,1,09,0.9,-7.9,M,-16.9,M,,0000*44
$GPRMC,221326.00,A,4857.65650,N,12303.02260,W,3.118,104.43,090416,,,D*77
$APHDM,079.10,M*0C
!AIVDM,1,1,,B,377SbP5001G<?NpL305:S6V:2000,0*42
$GPGSA,A,3,30,28,07,13,08,11,05,27,17,,,,1.4,0.9,1.1*3C
$GPRMC,221328.000,A,4857.6544,N,12303.0194,W,2.76,104.30,090416,,,A*79
!AIVDM,1,1,,B,14eHHQ@000G<AKVL3EvpjPrj0<2L,0*2F
!AIVDM,1,1,,B,14eG;o@000o<F3`L2`QiNnll28?P,0*03
$SNAPB,A,A,0.0000,R,N,V,V,80.0000,M,001,80.0000,M,80.0000,M*16
$GPGLL,4857.65650,N,12303.02260,W,221326.00,A,D*73
$GPGBS,221326.00,4.3,3.3,3.4,,,,*47
$PSMDOV,1
$PSMDOV,1
!AIVDM,1,1,,B,14eGsHh001o<OTbL<sftw5jh00Rw,0*3E
$APHDM,079.40,M*09
$GPRMC,221327.00,A,4857.65629,N,12303.02150,W,2.779,106.36,090416,,,D*78
$GPGGA,221329.000,4857.6542,N,12303.0182,W,1,09,0.9,-7.9,M,-16.9,M,,0000*44
$GPGGA,221327.00,4857.65629,N,12303.02150,W,2,11,0.73,-6.4,M,-17.7,M,,0000*48
$GPGSA,A,3,30,28,07,13,08,11,05,27,17,,,,1.4,0.9,1.1*3C
!AIVDM,1,1,,A,35Mid90PAQo?<?HKpd6`bVtl20vP,0*33
$APHDM,079.50,M*08
$GPRMC,221329.000,A,4857.6542,N,12303.0182,W,3.28,104.04,090416,,,A*74
!AIVDM,1,1,,A,ENkb9Ma9Q@@@@@@@@@@@@@@@@@@;W@2v=hvOP00003vP000,2*2A
$SNAPB,A,A,0.0000,L,N,V,V,80.0000,M,001,80.0000,M,80.0000,M*08
$GPGLL,4857.65629,N,12303.02150,W,221327.00,A,D*7C
$PSMDOV,1
$GPGBS,221327.00,4.2,3.1,3.4,,,,*45
!AIVDO,1,1,,,B5NVsf007=k;QLW0@3=2SweUoP06,0*6E
$APHDM,079.20,M*0F
!AIVDM,2,1,4,A,54eG;u429TGAHu<n221=0U8UB0tJ0:p>r222220t6akF659@a<U4hEmhDliC,0*60
$GPGGA,221330.000,4857.6539,N,12303.0168,W,1,09,0.9,-7.8,M,-16.9,M,,0000*45
!AIVDM,2,2,4,A,g?TmhDU6`80,2*56
$PSMDOV,1
!AIVDM,1,1,,B,B4eHnT@00=k1a9W1gCGQ3weUoP06,0*22
$GPGSA,A,3,30,28,07,13,08,11,05,27,17,,,,1.4,0.9,1.1*3C
$GPRMC,221330.000,A,4857.6539,N,12303.0168,W,3.23,104.88,090416,,,A*7B
$GPGGA,221328.00,4857.65603,N,12303.02041,W,2,11,0.73,-6.3,M,-17.7,M,,0000*49
$APHDM,078.70,M*0B
!AIVDM,1,1,,A,176rbc0000G=EpnL9>thi0hp0H@c,0*09
$SNAPB,A,A,0.0000,R,N,V,V,80.0000,M,001,80.0000,M,80.0000,M*16
!AIVDM,1,1,,B,34eGMDhP01G<NMlL=r>9Vwvn05rS,0*3D
$GPGLL,4857.65603,N,12303.02041,W,221328.00,A,D*7A
$PSMDOV,1
$GPGBS,221328.00,4.1,3.0,3.5,,,,*49
$APHDM,078.40,M*08
$PSMDOV,1
$PSMDOV,1
$PSMDOV,1
!AIVDM,2,1,5,B,55T@NN02B`vC<HDkF21=E0E8puH6222222222216CPEB;52j6?hhEPC`8888,0*38
$GPGGA,221331.000,4857.6536,N,12303.0156,W,1,09,0.9,-7.8,M,-16.9,M,,0000*46
$PSMDOV,1
$GPRMC,221329.00,A,4857.65591,N,12303.01905,W,3.239,103.68,090416,,,D*73
$GPGSA,A,3,30,28,07,13,08,11,05,27,17,,,,1.4,0.9,1.1*3C
$GPGSV,3,1,12,30,84,035,33,28,59,233,28,07,55,097,28,13,36,307,36*7A
$GPGGA,221329.00,4857.65591,N,12303.01905,W,2,11,0.73,-6.6,M,-17.7,M,,0000*4F
$PSMDOV,1
$SNAPB,A,A,0.0000,L,N,V,V,80.0000,M,001,80.0000,M,80.0000,M*08
!AIVDM,1,1,,A,34eG;tPPAVo8uDFL8u6:0opr0Q0h,0*12
$PSMDOV,1
$APHDM,078.50,M*09
$GPGSV,3,2,12,08,34,056,36,11,17,106,41,05,15,262,35,27,10,034,36*71
$GPGLL,4857.65591,N,12303.01905,W,221329.00,A,D*79
$PSMDOV,1
$GPGSV,3,3,12,17,08,182,35,15,04,322,28,48,33,193,26,26,61,285,*7F
$PSMDOV,1
!AIVDM,1,1,,B,337FK45000o<UlrL<v?7L00t0EIr,0*4E
$GPRMC,221331.000,A,4857.6536,N,12303.0156,W,3.01,103.66,090416,,,A*7F
!AIVDM,1,1,,A,15Muu1PP12o<:;@KllR5UOvr2<35,0*75
$PSMDOV,1
$GPGBS,221329.00,3.9,2.9,3.4,,,,*4E
$PSMDOV,1
$APHDM,079.10,M*0C
$GPGGA,221332.000,4857.6534,N,12303.0144,W,1,09,0.9,-8.1,M,-16.9,M,,0000*42
!AIVDM,1,1,,B,14eHkEPP1Ro<EnpL=k5mD?vr2D2N,0*7F
$GPGSA,A,3,30,28,07,13,08,11,05,27,17,,,,1.4,0.9,1.1*3C
$GPRMC,221330.00,A,4857.65563,N,12303.01774,W,3.386,105.46,090416,,,D*71
$GPRMC,221332.000,A,4857.6534,N,12303.0144,W,2.74,104.43,090416,,,A*7E
!AIVDM,1,1,,A,3815=fA001o;lc6L>S<MVAtv0DcJ,0*77
$SNAPB,A,A,0.0000,R,N,V,V,80.0000,M,001,80.0000,M,80.0000,M*16
$PSMDOV,1
$GPGGA,221330.00,4857.65563,N,12303.01774,W,2,10,0.77,-6.7,M,-17.7,M,,0000*46
$APHDM,079.70,M*0A
$PSMDOV,1
$GPGLL,4857.65563,N,12303.01774,W,221330.00,A,D*74
$GPGBS,221330.00,3.8,2.8,3.5,,,,*47
!AIVDM,1,1,,B,34eH@`hP@<G<kQ8L=<K7HS0t0000,0*7C
!AIVDM,1,1,,B,14eG;u002jo<A30L2In8bFtt06hl,0*42
$GPGGA,221333.000,4857.6533,N,12303.0134,W,1,09,0.9,-8.2,M,-16.9,M,,0000*40
!AIVDM,2,2,6,A,k`888888880,2*29
$APHDM,079.90,M*04
$GPGSA,A,3,30,28,07,13,08,11,05,27,17,,,,1.4,0.9,1.1*3C
!AIVDM,1,1,,B,14eGLuwP00G<PknL=2eihgvv08B?,0*07
$GPRMC,221333.000,A,4857.6533,N,12303.0134,W,2.63,104.99,090416,,,A*7E
$GPRMC,221331.00,A,4857.65533,N,12303.01648,W,3.145,106.40,090416,,,D*73
!AIVDM,1,1,,B,14eHEHwP00o=7u:L866sDww02HBD,0*02
$SNAPB,A,A,0.0000,L,N,V,V,80.0000,M,001,80.0000,M,80.0000,M*08
!AIVDM,1,1,,A,ENkb9Ma9Q@@@@@@@@@@@@@@@@@@;W@2v=hvOP00003vP000,2*2A
$APHDM,080.00,M*0B
!AIVDM,1,1,,A,15NM><g000o?=e`KqLD`Hmvv0@BO,0*16
$GPGBS,221331.00,3.7,2.8,3.5,,,,*49
!AIVDM,1,1,,B,403Ot`Av14n=Oo>bJPKfKc702<7s,0*06
$GPGGA,221334.000,4857.6531,N,12303.0122,W,1,09,0.9,-8.1,M,-16.9,M,,0000*41
!AIVDM,1,1,,B,4030pCAv14n=Oo;;NjL?3Po00@Bh,0*61
$GPGSA,A,3,30,28,07,13,08,11,05,27,17,,,,1.4,0.9,1.1*3C
!AIVDM,1,1,,B,B4eHJQP0H5jqKIVwkfCNcwh5WP06,0*08
$APHDM,080.20,M*09
$GPRMC,221334.000,A,4857.6531,N,12303.0122,W,3.14,106.55,090416,,,A*7F
$GPGGA,221332.00,4857.65512,N,12303.01530,W,2,11,0.73,-6.6,M,-17.7,M,,0000*44
$SNAPB,A,A,0.0000,R,N,V,V,80.0000,M,001,80.0000,M,80.0000,M*16
!AIVDM,1,1,,A,14eHLq?P00o<ElNL=>tINOw220Ro,0*61
!AIVDM,1,1,,A,B4eH?p00?Uk;3sW0Br=HGwh5oP06,0*3E
!AIVDM,1,1,,B,4030p7iv14n=Oo:s4BKl@jW00L5F,0*56
$APHDM,080.10,M*0A
!AIVDM,1,1,,B,4030p81v14n=Po;V:<KtT1G00HC5,0*0C
$GPGGA,221335.000,4857.6528,N,12303.0110,W,1,09,0.9,-8.0,M,-16.9,M,,0000*48
$GPRMC,221333.00,A,4857.65491,N,12303.01420,W,2.689,105.53,090416,,,D*73
$GPGSA,A,3,30,28,07,13,08,11,05,27,17,,,,1.4,0.9,1.1*3C
!AIVDM,1,1,,A,15N705PP1IG;crjL3Kicu?w420Rs,0*35
$GPGGA,221333.00,4857.65491,N,12303.01420,W,2,11,0.73,-6.4,M,-17.7,M,,0000*4D
$GPRMC,221335.000,A,4857.6528,N,12303.0110,W,3.33,107.13,090416,,,A*71
$APHDM,080.10,M*0A
!AIVDM,1,1,,A,14eGNKP000o<chDL=6amp1i40@Ce,0*79
$SNAPB,A,A,0.0000,L,N,V,V,80.0000,M,001,80.0000,M,80.0000,M*08
$GPGLL,4857.65491,N,12303.01420,W,221333.00,A,D*79
$GPGBS,221333.00,3.6,2.6,3.5,,,,*44
!AIVDO,1,1,,,B5NVsf006uk;R170@2E1wwhUoP06,0*6A
$APHDM,079.90,M*04
!AIVDM,1,1,,B,14eGdBh01Ho9jLfL0Ph`oG322D1G,0*1E
$GPGGA,221336.000,4857.6526,N,12303.0097,W,1,09,0.9,-7.8,M,-16.9,M,,0000*4C
$GPRMC,221334.00,A,4857.65463,N,12303.01305,W,2.985,108.96,090416,,,D*7E
$GPGSA,A,3,30,28,07,13,08,11,05,27,17,,,,1.4,0.9,1.1*3C
$GPGGA,221334.00,4857.65463,N,12303.01305,W,2,11,0.73,-6.5,M,-17.7,M,,0000*46
$GPGSV,3,1,12,30,84,035,28,28,59,233,30,07,55,097,30,13,36,307,37*71
$GPGLL,4857.65463,N,12303.01305,W,221334.00,A,D*73
$APHDM,080.00,M*0B
$GPGBS,221334.00,3.5,2.6,3.5,,,,*40
$SNAPB,A,A,0.0000,R,N,V,V,80.0000,M,001,80.0000,M,80.0000,M*16
$GPGSV,3,2,12,08,34,056,36,11,17,106,41,05,15,262,26,27,10,034,36*73
$GPRMC,221335.00,A,4857.65428,N,12303.01184,W,3.296,110.33,090416,,,D*75
$GPGSV,3,3,12,17,08,182,33,15,04,322,26,48,33,193,29,26,61,285,*78
$GPRMC,221336.000,A,4857.6526,N,12303.0097,W,3.33,104.36,090416,,,A*76
!AIVDM,1,1,,A,14eG?2hP00G:gNFLChv=vgw606hl,0*58
$GPGGA,221335.00,4857.65428,N,12303.01184,W,2,11,0.73,-6.3,M,-17.7,M,,0000*45
$APHDM,079.90,M*04
$GPGGA,221337.000,4857.6525,N,12303.0084,W,1,09,0.9,-7.9,M,-16.9,M,,0000*4D
$PSMDOV,1
$GPGSA,A,3,30,28,07,13,08,11,05,27,17,,,,1.4,0.9,1.1*3C
!AIVDM,1,1,,A,ENkb9Ma9Q@@@@@@@@@@@@@@@@@@;W@2v=hvOP00003vP000,2*2A
!AIVDM,1,1,,B,14eGMH@P01G<AI4L3ELGS?w400S6,0*2A
$GPRMC,221337.000,A,4857.6525,N,12303.0084,W,3.01,105.02,090416,,,A*71
!AIVDM,1,1,,A,14eGM4OP1KG<QctL=2;Mcww606hl,0*42
$SNAPB,A,A,0.0000,L,N,V,V,80.0000,M,001,80.0000,M,80.0000,M*08
$GPGLL,4857.65428,N,12303.01184,W,221335.00,A,D*76
$PSMDOV,1
$APHDM,079.70,M*0A
!AIVDM,1,1,,B,14eGeM?P01G=FnBL9g`hd?w60HDq,0*19
$PSMDOV,1
$GPGBS,221335.00,3.4,2.5,3.4,,,,*42
!AIVDO,1,1,,,B5NVsf008Mk;R=70@1u4wwiUoP06,0*67
!AIVDM,1,1,,A,14eGMF@P0@G<kk8L=@MUb?w608E0,0*61
$APHDM,079.40,M*09
$GPGGA,221338.000,4857.6522,N,12303.0074,W,1,09,0.9,-8.0,M,-16.9,M,,0000*4C
$GPRMC,221336.00,A,4857.65407,N,12303.01054,W,3.242,107.43,090416,,,D*7F
$GPGSA,A,3,30,28,07,13,08,11,05,27,17,,,,1.4,0.9,1.1*3C
!AIVDM,1,1,,A,14eHHQ@001G<AKVL3Evb2Pu606hl,0*4C
$GPRMC,221338.000,A,4857.6522,N,12303.0074,W,2.80,108.39,090416,,,A*7B
$GPGGA,221336.00,4857.65407,N,12303.01054,W,2,11,0.73,-6.4,M,-17.7,M,,0000*40
$SNAPB,A,A,0.0000,R,N,V,V,80.0000,M,001,80.0000,M,80.0000,M*16
$GPGLL,4857.65407,N,12303.01054,W,221336.00,A,D*74
$GPGBS,221336.00,3.4,2.4,3.5,,,,*41
$APHDM,079.10,M*0C
!AIVDM,1,1,,A,14eG;th020o;5u4KowNu;:U80<2M,0*43
!AIVDM,1,1,,A,14eG;o@000o<F3`L2`Quh6m826hl,0*52
$GPGGA,221339.000,4857.6519,N,12303.0063,W,1,09,0.9,-8.0,M,-16.9,M,,0000*43
!AIVDM,2,1,7,A,54eH1Tl2AQWd<HgW3S=<D5=04r18E<tiE@Ttr20l1h>774000:4ShQDU4p0P,0*5F
$APHDM,080.00,M*0B
$GPGSA,A,3,30,28,07,13,08,11,05,27,17,,,,1.4,0.9,1.1*3C
!AIVDM,2,2,7,A,CRp88888880,2*7A
$GPRMC,221337.00,A,4857.65383,N,12303.00929,W,3.077,108.76,090416,,,D*7A
$GPRMC,221339.000,A,4857.6519,N,12303.0063,W,2.79,107.83,090416,,,A*7C
!AIVDM,1,1,,B,35Mid9001Qo?<6pKpcCpbFu820t@,0*24
$SNAPB,A,A,0.0000,L,N,V,V,80.0000,M,001,80.0000,M,80.0000,M*08
!AIVDM,1,1,,A,14eG;u002lo<@pfL2Hq`b6s:0@F0,0*28
!AIVDM,1,1,,B,34eH@`h00=G<kQ8L=<K7MRu800w1,0*26
$APHDM,080.30,M*08
$GPGLL,4857.65383,N,12303.00929,W,221337.00,A,D*7C
$GPGBS,221337.00,3.3,2.4,3.4,,,,*46
$GPGGA,221340.000,4857.6518,N,12303.0051,W,1,09,0.9,-8.0,M,-16.9,M,,0000*4D
$GPRMC,221338.00,A,4857.65347,N,12303.00820,W,2.859,112.36,090416,,,D*7F
$GPGSA,A,3,30,28,07,13,08,11,05,27,17,,,,1.4,0.9,1.1*3C
$GPGGA,221338.00,4857.65347,N,12303.00820,W,2,11,0.73,-6.6,M,-17.7,M,,0000*45
$APHDM,081.20,M*08
$GPRMC,221340.000,A,4857.6518,N,12303.0051,W,2.90,107.16,090416,,,A*79
!AIVDM,1,1,,A,14eGMDhP01G<NMlL=r>7HOw:0<1f,0*3E
$GPGLL,4857.65347,N,12303.00820,W,221338.00,A,D*73
$SNAPB,A,A,0.0000,R,N,V,V,80.0000,M,001,80.0000,M,80.0000,M*16
$GPGBS,221338.00,3.3,2.4,3.4,,,,*49
!AIVDM,1,1,,B,14eGmkgP00G<6;@L6sp8rOw>26hl,0*30
$GPRMC,221339.00,A,4857.65321,N,12303.00705,W,2.873,112.62,090416,,,D*7F
$APHDM,082.00,M*09
$GPGGA,221341.000,4857.6516,N,12303.0039,W,1,09,0.9,-7.9,M,-16.9,M,,0000*4A
$PSMDOV,1
!AIVDM,1,1,,B,ENkb9Ma9Q@@@@@@@@@@@@@@@@@@;W@2v=hvOP00003vP000,2*29
$PSMDOV,1
$GPGSA,A,3,30,28,07,13,08,11,05,27,17,,,,1.4,0.9,1.1*3C
$GPGGA,221339.00,4857.65321,N,12303.00705,W,2,11,0.73,-6.6,M,-17.7,M,,0000*4C
$GPGSV,3,1,12,30,84,035,19,28,59,233,28,07,55,097,29,13,36,307,38*7D
$GPGLL,4857.65321,N,12303.00705,W,221339.00,A,D*7A
$PSMDOV,1
$APHDM,082.30,M*0A
$GPGBS,221339.00,3.2,2.3,3.4,,,,*4E
$SNAPB,A,A,0.0000,L,N,V,V,80.0000,M,001,80.0000,M,80.0000,M*08
$PSMDOV,1
$PSMDOV,1
!AIVDM,1,1,,A,14eGpkh000G?=FpKqRjhr1?<1Vhl,0*78
$PSMDOV,1
$GPGSV,3,2,12,08,34,056,36,11,17,106,41,05,15,262,33,27,10,034,32*73
$PSMDOV,1
$GPGSV,3,3,12,17,08,182,33,15,04,322,29,48,33,193,26,26,61,285,*78
$PSMDOV,1
!AIVDO,1,1,,,B5NVsf007Mk;RTW0@1A6KwkUoP06,0*69
$GPRMC,221341.000,A,4857.6516,N,12303.0039,W,3.04,106.82,090416,,,A*78
$GPRMC,221340.00,A,4857.65300,N,12303.00584,W,3.012,109.22,090416,,,D*79
$PSMDOV,1
$APHDM,082.40,M*0D
$GPGGA,221342.000,4857.6514,N,12303.0027,W,1,09,0.9,-8.0,M,-16.9,M,,0000*42
$PSMDOV,1
$GPGGA,221340.00,4857.65300,N,12303.00584,W,2,11,0.73,-6.6,M,-17.7,M,,0000*4A
$GPGSA,A,3,30,28,07,13,08,11,05,27,17,,,,1.4,0.9,1.1*3C
!AIVDM,1,1,,B,?03OvjQGTwPhD00,2*01
!AIVDM,1,1,,A,?03Ovj1@WJtHD00,2*5F
!AIVDM,1,1,,A,?03Ovj1;GQ50D00,2*16
$GPRMC,221342.000,A,4857.6514,N,12303.0027,W,3.33,108.40,090416,,,A*72
!AIVDM,1,1,,B,15Muu1PP10o<:?PKlkn6>Ow@2<34,0*01
$APHDM,082.20,M*0B
$SNAPB,A,A,0.0000,R,N,V,V,80.0000,M,001,80.0000,M,80.0000,M*16
$GPGLL,4857.65300,N,12303.00584,W,221340.00,A,D*7C
$GPGBS,221340.00,3.2,2.2,3.3,,,,*46
!AIVDM,1,1,,A,403OvjAv14n=`o=cb<Knf0O026hl,0*20
!AIVDM,1,1,,B,403OvjAv14n=`o=cb<Knf0O026hl,0*23
$APHDM,081.80,M*02
!AIVDM,1,1,,A,34eH@`hOh:G<kQ8L=<K7MS1@0000,0*7E
$GPGGA,221343.000,4857.6510,N,12303.0014,W,1,09,0.9,-8.2,M,-16.9,M,,0000*45
$GPGSA,A,3,30,28,07,13,08,11,05,27,17,,,,1.4,0.9,1.1*3C
$PSMDOV,1
$GPRMC,221341.00,A,4857.65268,N,12303.00438,W,3.182,108.26,090416,,,D*7C
!AIVDM,1,1,,A,403Ovj1v14n=ao>@4rKp@Tg02<77,0*13
$GPRMC,221343.000,A,4857.6510,N,12303.0014,W,3.04,108.41,090416,,,A*72
!AIVDM,1,1,,A,403OvjQv14n=ao<ALtKlBKg02<1I,0*77
$SNAPB,A,A,0.0000,L,N,V,V,80.0000,M,001,80.0000,M,80.0000,M*08
!AIVDM,1,1,,B,403Ovj1v14n=ao>@4rKp@Tg02<77,0*10
$APHDM,080.90,M*02
!AIVDM,1,1,,A,D03Ovj0mAN>4f8fGLfpNfp0,2*25
!AIVDM,1,1,,A,D03Ovj@uqN>4e8ffpfpNfp0,2*63
$GPGLL,4857.65268,N,12303.00438,W,221341.00,A,D*74
!AIVDM,1,1,,A,14eGFSPP00G<lA<L=F8ebwwB0<39,0*32
$GPGGA,221344.000,4857.6508,N,12303.0002,W,1,09,0.9,-8.5,M,-16.9,M,,0000*4B
$PSMDOV,1
!AIVDM,1,1,,A,4030pCAv14n=ao;;NjL?3Po00@HW,0*79
$GPGSA,A,3,30,28,07,13,08,11,05,27,17,,,,1.4,0.9,1.1*3C
$APHDM,079.80,M*05
!AIVDM,1,1,,B,34eGEDPOh0o<MQ@L=oF<jh3B2Pv1,0*7B
$GPRMC,221344.000,A,4857.6508,N,12303.0002,W,2.84,108.02,090416,,,A*75
!AIVDM,1,1,,B,14eGNKP000o<ch@L=6bEp1iF08Hg,0*56
!AIVDM,1,1,,B,14eHLq?P00o<ElJL=>tIKwwF26hl,0*10
$SNAPB,A,A,0.0000,R,N,V,V,80.0000,M,001,80.0000,M,80.0000,M*16
!AIVDM,1,1,,A,4030p7iv14n=ao:s4BKl@jW00L5G,0*7A
$PSMDOV,1
!AIVDM,1,1,,A,4030p81v14n=bo;V:<KtT1G00HHt,0*77
$APHDM,079.50,M*08
$GPGLL,4857.65226,N,12303.00291,W,221342.00,A,D*78
$PSMDOV,1
$GPGBS,221342.00,3.1,2.1,3.3,,,,*44
$GPGGA,221345.000,4857.6506,N,12302.9991,W,1,09,0.9,-8.2,M,-16.9,M,,0000*48
!AIVDM,1,1,,B,14eGNm@P00G=4LNL=7LTWOwF2HI=,0*04
$GPGSA,A,3,30,28,07,13,08,11,05,27,17,,,,1.4,0.9,1.1*3C
$GPRMC,221343.00,A,4857.65191,N,12303.00156,W,3.203,112.03,090416,,,D*70
$APHDM,079.90,M*04
$GPRMC,221345.000,A,4857.6506,N,12302.9991,W,2.66,108.04,090416,,,A*7B
$GPGGA,221343.00,4857.65191,N,12303.00156,W,2,12,0.71,-6.2,M,-17.7,M,,0000*4D
$SNAPB,A,A,0.0000,L,N,V,V,80.0000,M,001,80.0000,M,80.0000,M*08
!AIVDM,1,1,,B,14eG;u002no<@h8L2H4pW6oD0@IH,0*1A
$GPGLL,4857.65191,N,12303.00156,W,221343.00,A,D*7E
!AIVDM,1,1,,B,14eI18gP00G<FA<L=;d=JwwF2L2K,0*6A
$APHDM,081.10,M*0B
$GPGBS,221343.00,3.0,2.1,3.3,,,,*44
!AIVDM,1,1,,B,14eGgch000o<OSJL<sf33moB0L2R,0*62
$GPGGA,221346.000,4857.6504,N,12302.9980,W,1,09,0.9,-8.1,M,-16.9,M,,0000*4A
!AIVDM,1,1,,A,14eGMH@P01G<AI6L3EKofOwD0<0r,0*1A
$GPGSA,A,3,30,28,07,13,08,11,05,27,17,,,,1.4,0.9,1.1*3C
$GPRMC,221344.00,A,4857.65159,N,12303.00028,W,2.995,110.59,090416,,,D*73
$APHDM,081.90,M*03
$GPGSV,3,1,12,30,83,038,16,28,59,233,30,07,54,097,30,13,37,307,38*79
!AIVDM,1,1,,A,14eGkSh000o;4ejKo4Ha6WCF0<1J,0*24
!AIVDM,1,1,,B,14eHnF0000o<c1FL=5f`TW5J06hl,0*5E
$SNAPB,A,A,0.0000,R,N,V,V,80.0000,M,001,80.0000,M,80.0000,M*16
$GPGSV,3,2,12,08,34,056,36,11,17,106,41,05,15,262,39,27,10,034,35*7E
$GPGLL,4857.65159,N,12303.00028,W,221344.00,A,D*75
$GPGSV,3,3,12,17,08,182,38,15,04,322,30,48,33,193,23,26,61,284,*7F
$GPRMC,221346.000,A,4857.6504,N,12302.9980,W,2.91,107.93,090416,,,A*73
!AIVDM,1,1,,B,14eG;lP01No:74pKuaA9d7oFP<0k,0*06
$APHDM,082.50,M*0C
!AIVDM,1,1,,B,14eGEC@017G<o>@Ku0Kdv:=F0<2b,0*52
$GPGBS,221344.00,3.0,2.1,3.4,,,,*44
$GPGGA,221347.000,4857.6502,N,12302.9968,W,1,09,0.9,-8.3,M,-16.9,M,,0000*49
!AIVDM,1,1,,B,14eHHQ@000G<AK`L3EvQf0uH0@JF,0*7F
$GPGSA,A,3,30,28,07,13,08,11,05,27,17,,,,1.4,0.9,1.1*3C
!AIVDM,1,1,,B,34eG;lh01?o:`edKkpCUbTUD013Q,0*37
$GPRMC,221347.000,A,4857.6502,N,12302.9968,W,3.35,107.32,090416,,,A*76
$GPGGA,221345.00,4857.65127,N,12302.99883,W,2,12,0.71,-6.0,M,-17.7,M,,0000*44
$APHDM,082.70,M*0E
$SNAPB,A,A,0.0000,L,N,V,V,80.0000,M,001,80.0000,M,80.0000,M*08
$GPGLL,4857.65127,N,12302.99883,W,221345.00,A,D*75
$GPGBS,221345.00,2.9,2.0,3.4,,,,*4C
!AIVDM,1,1,,B,14eG;u@000o;3rfKo5vq>:1J0<1k,0*70
!AIVDM,1,1,,A,14eGeM?P00G=FmvL9gTPpgwJ08Js,0*6C
!AIVDO,1,1,,,B5NVsf007=k;S>70@054WwnUoP06,0*7C
$APHDM,082.30,M*0A
$GPGGA,221348.000,4857.6500,N,12302.9955,W,1,09,0.9,-8.4,M,-16.9,M,,0000*4D
$GPRMC,221346.00,A,4857.65105,N,12302.99752,W,2.926,110.22,090416,,,D*77
$GPGSA,A,3,30,28,07,13,08,11,05,27,17,,,,1.4,0.9,1.1*3C
$GPRMC,221348.000,A,4857.6500,N,12302.9955,W,3.46,107.82,090416,,,A*7A
$GPGGA,221346.00,4857.65105,N,12302.99752,W,2,11,0.77,-6.0,M,-17.7,M,,0000*41
$GPGLL,4857.65105,N,12302.99752,W,221346.00,A,D*75
$SNAPB,A,A,0.0000,R,N,V,V,80.0000,M,001,80.0000,M,80.0000,M*16
$GPGBS,221346.00,2.9,1.9,3.4,,,,*45
$APHDM,081.60,M*0C
!AIVDM,1,1,,B,14eG;o@000o<F3`L2`Qb66mL26hl,0*6C
$GPRMC,221347.00,A,4857.65082,N,12302.99616,W,3.180,108.79,090416,,,D*7B
$GPGGA,221347.00,4857.65082,N,12302.99616,W,2,12,0.77,-6.0,M,-17.7,M,,0000*4C
$GPGGA,221349.000,4857.6497,N,12302.9941,W,1,09,0.9,-8.7,M,-16.9,M,,0000*45
$APHDM,080.90,M*02
!AIVDM,1,1,,B,14eG;th01wo;5n>Kp0le:rWL0<2S,0*5E
$GPGSA,A,3,30,28,07,13,08,11,05,27,17,,,,1.4,0.9,1.1*3C
$PSMDOV,1
!AIVDM,1,1,,A,34eH@`h00;G<kQ8L=<K7P35L0111,0*2C
$GPRMC,221349.000,A,4857.6497,N,12302.9941,W,3.17,108.84,090416,,,A*7C
!AIVDM,1,1,,B,14eGsHh000o<OTVL<sgDRUkJ0<2L,0*0B
$GPGLL,4857.65082,N,12302.99616,W,221347.00,A,D*7B
$SNAPB,A,A,0.0000,L,N,V,V,80.0000,M,001,80.0000,M,80.0000,M*08
$GPGBS,221347.00,2.8,1.8,3.3,,,,*43
!AIVDM,1,1,,B,14eGMH0P07G<P@<L=ewB2?wN0<2<,0*20
$APHDM,080.10,M*0A
!AIVDO,1,1,,,B5NVsf008=k;SK70?wi43woUoP06,0*07
!AIVDM,1,1,,A,14eGmkgP00G<6;BL6spHpgwP2<2g,0*5E
$GPGGA,221350.000,4857.6495,N,12302.9931,W,1,09,0.9,-9.0,M,-16.9,M,,0000*4E
$PSMDOV,1
$GPRMC,221348.00,A,4857.65049,N,12302.99488,W,3.302,111.33,090416,,,D*78
$GPGSA,A,3,30,28,07,13,08,11,05,27,17,,,,1.4,0.9,1.1*3C
$APHDM,079.90,M*04
!AIVDM,1,1,,B,14eGMDhP01G<NMnL=r=oM?wL08L@,0*38
$GPRMC,221350.000,A,4857.6495,N,12302.9931,W,2.86,107.69,090416,,,A*74
$GPGGA,221348.00,4857.65049,N,12302.99488,W,2,12,0.77,-5.7,M,-17.7,M,,0000*45
$SNAPB,A,A,0.0000,R,N,V,V,80.0000,M,001,80.0000,M,80.0000,M*16
!AIVDM,1,1,,A,14eGL:@P00o<s18L87g:5wwR0D2W,0*26
$GPGLL,4857.65049,N,12302.99488,W,221348.00,A,D*76
$GPGBS,221348.00,2.8,1.8,3.2,,,,*4D
$APHDM,079.80,M*05
!AIDDH,1, ,(A,B0Mpdr00DLk8:p70:FS0KvpUWP04,06C*1A
!AIVDM,1,1,,B,14eHkEPP1Ro<F90L=ic55wwR20Rf,0*43
$GPGGA,221351.000,4857.6493,N,12302.9920,W,1,09,0.9,-8.9,M,-16.9,M,,0000*41
$GPGSA,A,3,30,28,07,13,08,11,05,27,17,,,,1.4,0.9,1.1*3C
$GPRMC,221349.00,A,4857.65009,N,12302.99355,W,3.213,112.47,090416,,,D*7B
$GPGSV,3,1,12,30,83,038,35,28,59,233,30,07,54,097,29,13,37,307,38*70
$GPGGA,221349.00,4857.65009,N,12302.99355,W,2,12,0.77,-5.5,M,-17.7,M,,0000*45
$APHDM,079.90,M*04
!AIVDM,1,1,,A,34eG;tP01Wo8tt4L8tF9dGmP0Pwh,0*37
$SNAPB,A,A,0.0000,L,N,V,V,80.0000,M,001,80.0000,M,80.0000,M*08
$GPGSV,3,2,12,08,34,056,33,11,17,106,41,05,15,262,36,27,10,034,36*77
$GPGLL,4857.65009,N,12302.99355,W,221349.00,A,D*74
$PSMDOV,1
$GPGSV,3,3,12,17,08,182,38,15,04,322,25,48,33,193,28,26,61,284,*70
!AIVDM,1,1,,A,34eG;u002oo<@V2L2G5HUFoR01h1,0*55
$GPRMC,221351.000,A,4857.6493,N,12302.9920,W,2.84,107.31,090416,,,A*7C
$APHDM,080.10,M*0A
$GPGBS,221349.00,2.7,1.7,3.3,,,,*4D
$PSMDOV,1
!AIVDO,1,1,,,B5NVsf008=k;S`70?wE6GwpUoP06,0*69
$GPGGA,221352.000,4857.6490,N,12302.9908,W,1,09,0.9,-8.7,M,-16.9,M,,0000*45
$PSMDOV,1
$PSMDOV,1
$GPRMC,221350.00,A,4857.64978,N,12302.99230,W,2.892,111.05,090416,,,D*78
$GPGSA,A,3,30,28,07,13,08,11,05,27,17,,,,1.4,0.9,1.1*3C
!AIVDM,1,1,,A,3815=>A000o;su`L=KLM;`qR0000,0*2A
$GPRMC,221352.000,A,4857.6490,N,12302.9908,W,3.05,108.16,090416,,,A*74
$GPGGA,221350.00,4857.64978,N,12302.99230,W,2,11,0.77,-5.4,M,-17.7,M,,0000*43
$APHDM,080.40,M*0F
$SNAPB,A,A,0.0000,R,N,V,V,80.0000,M,001,80.0000,M,80.0000,M*16
!AIVDM,1,1,,A,34eGkvm000o<OTvL<rrVEmqP0000,0*52
!AIVDM,1,1,,B,14eGtN0P0aG<aTTL=;QbcOwV00S7,0*03
!AIVDM,1,1,,A,14eGMFhP01G<MQPL=lHC=gwR06hl,0*6F
$GPGLL,4857.64978,N,12302.99230,W,221350.00,A,D*70
$APHDM,080.40,M*0F
$GPGBS,221350.00,2.7,1.7,3.3,,,,*45
$GPGGA,221353.000,4857.6486,N,12302.9896,W,1,09,0.9,-9.0,M,-16.9,M,,0000*43
!AIVDM,1,1,,B,34eH@`h00:G<kQ8L=<K7P35T0000,0*37
$GPGSA,A,3,30,28,07,13,08,11,05,27,17,,,,1.4,0.9,1.1*3C
$GPRMC,221351.00,A,4857.64948,N,12302.99107,W,2.894,109.78,090416,,,D*78
$GPRMC,221353.000,A,4857.6486,N,12302.9896,W,3.19,108.65,090416,,,A*7D
$GPGGA,221351.00,4857.64948,N,12302.99107,W,2,12,0.71,-5.2,M,-17.7,M,,0000*45
$SNAPB,A,A,0.0000,L,N,V,V,80.0000,M,001,80.0000,M,80.0000,M*08
$APHDM,080.20,M*09
$GPGLL,4857.64948,N,12302.99107,W,221351.00,A,D*75
!AIVDM,1,1,,A,14eGQA0P00G<LBFL5T5ovOw`26hl,0*1B
$PSMDOV,1
!AIVDM,1,1,,B,B5NbGVP0?mkIfL6v9p@VOwqUkP06,0*6B
$GPGBS,221351.00,2.6,1.7,3.3,,,,*45
$PSMDOV,1
$APHDM,080.70,M*0C
!AIVDM,1,1,,B,4030pCAv14n=ko;;NjL?3Po00@NN,0*6F
$GPGGA,221354.000,4857.6483,N,12302.9883,W,1,09,0.9,-8.7,M,-16.9,M,,0000*43
!AIVDO,1,1,,,B5NVsf007Mk;SlW0?vu4cwqUoP06,0*6C
$GPGSA,A,3,30,28,07,13,08,11,05,27,17,,,,1.4,0.9,1.1*3C
!AIVDM,1,1,,B,14eGLuwP00G<Pk4L=2`B4wwV00Rq,0*48
$GPRMC,221354.000,A,4857.6483,N,12302.9883,W,3.19,108.46,090416,,,A*7A
!AIVDM,1,1,,A,14eGNKP000o<ch@L=6c5p1ib08NV,0*37
!AIVDM,1,1,,B,4030p81v14n=lo;V:<KtT1G00HNk,0*63
$SNAPB,A,A,0.0000,R,N,V,V,80.0000,M,001,80.0000,M,80.0000,M*16
$GPGLL,4857.64916,N,12302.98988,W,221352.00,A,D*73
$APHDM,080.60,M*0D
$GPGBS,221352.00,2.6,1.7,3.2,,,,*47
!AIVDM,1,1,,B,15PTpF000Ao>2oJKuFs3Q3ud26hl,0*6F
$PSMDOV,1
!AIVDM,1,1,,A,14eHLq?P00o<ElJL=>tIJgwb2D2`,0*02
$GPGGA,221355.000,4857.6479,N,12302.9871,W,1,09,0.9,-8.7,M,-16.9,M,,0000*4A
$GPRMC,221353.00,A,4857.64881,N,12302.98857,W,3.305,111.46,090416,,,D*75
$GPGSA,A,3,30,28,07,13,08,11,05,27,17,,,,1.4,0.9,1.1*3C
$APHDM,080.30,M*08
$GPRMC,221355.000,A,4857.6479,N,12302.9871,W,3.20,108.20,090416,,,A*79
$GPGGA,221353.00,4857.64881,N,12302.98857,W,2,12,0.77,-5.0,M,-17.7,M,,0000*4A
!AIVDM,1,1,,B,34eG;tP01Wo8to2L8t:qc7m`0Pti,0*58
$SNAPB,A,A,0.0000,L,N,V,V,80.0000,M,001,80.0000,M,80.0000,M*08
!AIVDM,1,1,,B,B4eHe?@0@Mjh<mVums94GwrUoP06,0*14
!AIVDM,1,1,,B,14eGLiPP02G<J=DL=>NIkwwd06hl,0*28
$APHDM,080.40,M*0F
$GPGLL,4857.64881,N,12302.98857,W,221353.00,A,D*7E
!AIVDM,1,1,,A,14eG;lP01No:6r@Ku`u9d7o`P0Sa,0*04
$GPGBS,221353.00,2.6,1.7,3.3,,,,*47
$GPGGA,221356.000,4857.6477,N,12302.9859,W,1,09,0.9,-8.5,M,-16.9,M,,0000*4F
!AIVDO,1,1,,,B5NVsf008Mk;T170?vQ5gwrUoP06,0*7B
$GPGSA,A,3,30,28,07,13,08,11,05,27,17,,,,1.4,0.9,1.1*3C
$GPGGA,221354.00,4857.64849,N,12302.98718,W,2,12,0.77,-5.0,M,-17.7,M,,0000*4D
$APHDM,080.60,M*0D
$GPGSV,3,1,12,30,83,038,28,28,59,233,31,07,54,097,29,13,37,307,38*7D
!AIVDM,1,1,,A,34eH@`h00;G<kQ8L=<K7CS5b00s@,0*43
$SNAPB,A,A,0.0000,R,N,V,V,80.0000,M,001,80.0000,M,80.0000,M*16
!AIVDM,1,1,,A,14eGEC@018G<o9lKu17dv:=b00S:,0*19
$GPGSV,3,2,12,08,34,056,34,11,17,106,41,05,15,262,34,27,10,034,35*71
$GPGLL,4857.64849,N,12302.98718,W,221354.00,A,D*79
$GPGSV,3,3,12,17,08,182,37,15,04,322,28,48,33,193,23,26,61,284,*79
$GPRMC,221356.000,A,4857.6477,N,12302.9859,W,2.69,108.10,090416,,,A*71
!AIVDM,1,1,,B,14eGMH@P01G<AI:L3EKGKgwb0@P2,0*42
$APHDM,080.60,M*0D
$GPGBS,221354.00,2.6,1.6,3.3,,,,*41
!AIVDM,1,1,,A,14`Uuk@112o<MfNL=R4;Hq?d06hl,0*00
$GPGGA,221357.000,4857.6475,N,12302.9848,W,1,09,0.9,-8.5,M,-16.9,M,,0000*4C
$PSMDOV,1
!AIVDM,1,1,,A,14eHnF0000o<c1DL=5fpvG5f06hl,0*51
$GPGSA,A,3,30,28,07,13,08,11,05,27,17,,,,1.4,0.9,1.1*3C
!AIVDM,1,1,,B,14eG;u002qo<@MTL2F>`Snmd0@PC,0*34
$GPRMC,221357.000,A,4857.6475,N,12302.9848,W,2.98,106.62,090416,,,A*77
$GPGGA,221355.00,4857.64819,N,12302.98582,W,2,12,0.71,-5.1,M,-17.7,M,,0000*4F
$APHDM,080.30,M*08
$SNAPB,A,A,0.0000,L,N,V,V,80.0000,M,001,80.0000,M,80.0000,M*08
$GPGLL,4857.64819,N,12302.98582,W,221355.00,A,D*7C
!AIVDM,1,1,,A,14eHHQ@001G<AKTL3Evo9Pud00S8,0*73
$GPGBS,221355.00,2.6,1.6,3.3,,,,*40
$APHDM,079.60,M*0B
!AIVDM,1,1,,A,14eGM4OP1GG<QGHL=2vsNwwf0L3N,0*5B
!AIVDO,1,1,,,B5NVsf008=k;T?70?v95gwsUoP06,0*6C
$GPGGA,221358.000,4857.6472,N,12302.9835,W,1,09,0.9,-8.4,M,-16.9,M,,0000*4F
$GPGSA,A,3,30,28,07,13,08,11,05,27,17,,,,1.4,0.9,1.1*3C
$GPRMC,221356.00,A,4857.64813,N,12302.98448,W,2.859,109.95,090416,,,D*7D
!AIVDM,1,1,,A,14eH1Th000o<APpL3FMIS6cf06hl,0*5E
$GPRMC,221358.000,A,4857.6472,N,12302.9835,W,3.16,108.47,090416,,,A*7B
$GPGGA,221356.00,4857.64813,N,12302.98448,W,2,12,0.71,-5.8,M,-17.7,M,,0000*48
$SNAPB,A,A,0.0000,R,N,V,V,80.0000,M,001,80.0000,M,80.0000,M*16
$APHDM,078.50,M*09
!AIVDM,1,1,,B,14eGsHh000o<OTVL<sgDg5kd0@Q9,0*1A
$GPGLL,4857.64813,N,12302.98448,W,221356.00,A,D*72
!AIVDO,1,1,,A,B5NVsf007Mk;TEW0?v54kwt5oP06,0*2E
!AIVDM,1,1,,B,14eGeLhP00G=C<NL8cJbS?wh08Q>,0*73
$APHDM,077.80,M*0B
$GPGGA,221359.000,4857.6469,N,12302.9822,W,1,09,0.9,-8.1,M,-16.9,M,,0000*47
$GPGBS,221356.00,2.5,1.6,3.2,,,,*41
$GPGSA,A,3,30,28,07,13,08,11,05,27,17,,,,1.4,0.9,1.1*3C
$GPRMC,221357.00,A,4857.64791,N,12302.98330,W,2.909,109.11,090416,,,D*79
!AIVDM,1,1,,A,14eG;u@000o;3r`Ko5veHJ1h0@QR,0*60
$GPRMC,221359.000,A,4857.6469,N,12302.9822,W,3.25,108.11,090416,,,A*75
!AIVDM,1,1,,A,14eG;o@000o<F3`L2`Q`76mj28Qi,0*78
$SNAPB,A,A,0.0000,L,N,V,V,80.0000,M,001,80.0000,M,80.0000,M*08
$GPGLL,4857.64791,N,12302.98330,W,221357.00,A,D*7E
$APHDM,077.90,M*0A
$GPGBS,221357.00,2.5,1.6,3.2,,,,*40
!AIVDM,1,1,,B,14eGmkgP00G<6;BL6sppoOwl26hl,0*35
$GPRMC,221358.00,A,4857.64758,N,12302.98210,W,3.084,111.67,090416,,,D*75
$GPGGA,221400.000,4857.6465,N,12302.9809,W,1,09,0.9,-7.8,M,-16.9,M,,0000*4F
!AIVDO,1,1,,,B5NVsf007uk;TQW0?ui5owu5oP06,0*18
$APHDM,078.80,M*04
$GPGSA,A,3,30,28,07,13,08,11,05,27,17,,,,1.4,0.9,1.1*3C
$GPGGA,221358.00,4857.64758,N,12302.98210,W,2,11,0.77,-5.6,M,-17.7,M,,0000*46
$GPRMC,221400.000,A,4857.6465,N,12302.9809,W,3.13,107.66,090416,,,A*71
!AIVDM,1,1,,B,14eGEB0000o<k<fL7f0@<3Il0<2W,0*49
$GPGLL,4857.64758,N,12302.98210,W,221358.00,A,D*77
$SNAPB,A,A,0.0000,R,N,V,V,80.0000,M,001,80.0000,M,80.0000,M*16
$GPGBS,221358.00,2.5,1.6,3.3,,,,*4E
$APHDM,079.90,M*04
$GPRMC,221359.00,A,4857.64730,N,12302.98079,W,3.299,109.84,090416,,,D*7D
$GPGGA,221359.00,4857.64730,N,12302.98079,W,2,12,0.77,-5.7,M,-17.7,M,,0000*46
$GPGGA,221401.000,4857.6463,N,12302.9796,W,1,09,0.9,-7.6,M,-16.9,M,,0000*4F
$GPGLL,4857.64730,N,12302.98079,W,221359.00,A,D*75
$APHDM,080.90,M*02
$GPGSA,A,3,30,28,07,13,08,11,05,27,17,,,,1.4,0.9,1.1*3C
$GPGBS,221359.00,2.5,1.6,3.2,,,,*4E
!AIVDM,1,1,,A,14eGMDhP00G<NMnL=r=nFwwl0@S6,0*49
$GPGSV,3,1,12,30,83,038,32,28,59,233,30,07,54,097,28,13,37,307,35*7B
$GPRMC,221400.00,A,4857.64705,N,12302.97952,W,3.130,106.86,090416,,,D*72
$SNAPB,A,A,0.0000,L,N,V,V,80.0000,M,001,80.0000,M,80.0000,M*08
$PSMDOV,1
$PSMDOV,1
$PSMDOV,1
!AIVDO,1,1,,,B5NVsf007uk;TfW0?uM2owP5oP06,0*29
$PSMDOV,1
$GPGSV,3,2,12,08,34,056,36,11,17,106,42,05,15,262,29,27,10,034,34*7D
$PSMDOV,1
$GPGSV,3,3,12,17,08,182,33,15,04,322,30,48,33,193,26,26,61,284,*71
$PSMDOV,1
$GPRMC,221401.000,A,4857.6463,N,12302.9796,W,3.32,104.96,090416,,,A*70
$PSMDOV,1
$GPGGA,221400.00,4857.64705,N,12302.97952,W,2,12,0.77,-5.6,M,-17.7,M,,0000*45
$APHDM,081.00,M*0A
$PSMDOV,1
!AIVDM,2,1,8,B,54eGdBl29ia<<HsCK7PeE0E:222222222222220t38I8840Ht54m5@DU80j0,0*2B
!AIVDM,2,2,8,B,CSQC8888880,2*2D
$GPGGA,221402.000,4857.6462,N,12302.9784,W,1,09,0.9,-7.5,M,-16.9,M,,0000*4D
$GPGSA,A,3,30,28,07,13,08,11,05,27,17,,,,1.4,0.9,1.1*3C
$GPGLL,4857.64705,N,12302.97952,W,221400.00,A,D*77
$GPGBS,221400.00,2.5,1.6,3.3,,,,*44
$APHDM,080.10,M*0A
$GPRMC,221402.000,A,4857.6462,N,12302.9784,W,3.00,109.32,090416,,,A*73
!AIVDM,1,1,,A,34eH@`h00:G<kQ8L=<27K3200000,0*35
$PSMDOV,1
!AIVDM,1,1,,B,403OvjAv14n>0o=cb2Kneuw020S:,0*6B
$SNAPB,A,A,0.0000,R,N,V,V,80.0000,M,001,80.0000,M,80.0000,M*16
$PSMDOV,1
!AIVDM,1,1,,B,?03OvjA;F73lD00,2*58
$PSMDOV,1
$GPRMC,221401.00,A,4857.64694,N,12302.97826,W,3.078,103.71,090416,,,D*78
$APHDM,078.60,M*0A
!AIVDM,1,1,,A,403Ovj1v14n>1o>@4nKp@SO0280f,0*21
$GPGGA,221403.000,4857.6458,N,12302.9773,W,1,09,0.9,-7.1,M,-16.9,M,,0000*49
$GPGGA,221401.00,4857.64694,N,12302.97826,W,2,12,0.71,-6.0,M,-17.7,M,,0000*4C
$GPGSA,A,3,30,28,07,13,08,11,05,27,17,,,,1.4,0.9,1.1*3C
!AIVDM,1,1,,B,403Ovj1v14n>1o>@4nKp@SO0280h,0*2C
!AIVDM,1,1,,A,403OvjQv14n>1o<ALlKlBLO0280h,0*37
$GPRMC,221403.000,A,4857.6458,N,12302.9773,W,3.09,109.89,090416,,,A*7A
$APHDM,077.20,M*01
!AIVDM,1,1,,B,D03Ovj@11N>6;Hffp00Nfp0,2*5E
$SNAPB,A,A,0.0000,L,N,V,V,80.0000,M,001,80.0000,M,80.0000,M*08
!AIVDM,1,1,,A,D03Ovj06IN>6;pfGL00Nfp0,2*77
!AIVDM,1,1,,B,D03OvjP6IN>6<8fGL00Nfp0,2*5B
!AIVDM,1,1,,A,D03Ovj@?1N>6:pffp00Nfp0,2*6A
!AIVDM,1,1,,A,14eG;u002ro<@CRL2E=HS6n20<37,0*72
$APHDM,076.60,M*04
!AIVDM,1,1,,A,D03OvjPDIN>6;`fGL00Nfp0,2*75
$GPGGA,221404.000,4857.6455,N,12302.9760,W,1,09,0.9,-7.0,M,-16.9,M,,0000*40
!AIVDM,1,1,,B,?03OvjA;F5GpD00,2*32
!AIVDM,1,1,,B,?03OvjA;F5vLD00,2*3F
$GPGSA,A,3,30,28,07,13,08,11,05,27,17,,,,1.4,0.9,1.1*3C
$GPRMC,221402.00,A,4857.64668,N,12302.97712,W,2.912,108.21,090416,,,D*7A
$GPRMC,221404.000,A,4857.6455,N,12302.9760,W,3.35,109.33,090416,,,A*7C
$SNAPB,A,A,0.0000,R,N,V,V,80.0000,M,001,80.0000,M,80.0000,M*16
$GPGGA,221402.00,4857.64668,N,12302.97712,W,2,12,0.71,-6.2,M,-17.7,M,,0000*46
$APHDM,076.60,M*04
!AIVDM,1,1,,A,4030p7iv14n>1o:s4BKl@jW00L5A,0*2F
!AIVDM,1,1,,A,4030p81v14n>2o;V:<KtT1G00D67,0*15
!AIVDM,1,1,,B,14eGLtPP00G<l@bL=EbMGOv40@1R,0*4D
$GPGBS,221402.00,2.5,1.6,2.9,,,,*4D
$APHDM,077.10,M*02
$GPGGA,221405.000,4857.6453,N,12302.9745,W,1,09,0.9,-7.0,M,-16.9,M,,0000*40
$GPRMC,221403.00,A,4857.64646,N,12302.97608,W,3.021,112.09,090416,,,D*74
$GPGSA,A,3,30,28,07,13,08,11,05,27,17,,,,1.4,0.9,1.1*3C
$GPGGA,221403.00,4857.64646,N,12302.97608,W,2,12,0.71,-6.0,M,-17.7,M,,0000*43
$GPRMC,221405.000,A,4857.6453,N,12302.9745,W,3.41,107.74,090416,,,A*72
$GPGLL,4857.64646,N,12302.97608,W,221403.00,A,D*72
$SNAPB,A,A,0.0000,L,N,V,V,80.0000,M,001,80.0000,M,80.0000,M*08
$GPGBS,221403.00,2.4,1.6,2.9,,,,*4D
$GPRMC,221404.00,A,4857.64618,N,12302.97486,W,3.212,111.57,090416,,,D*76
$APHDM,078.90,M*05
!AIVDO,1,1,,,B5NVsf008=k;U5W0?tq5kwR5oP06,0*00
$GPGGA,221404.00,4857.64618,N,12302.97486,W,2,12,0.71,-6.1,M,-17.7,M,,0000*4A
$GPGGA,221406.000,4857.6451,N,12302.9732,W,1,09,0.9,-7.0,M,-16.9,M,,0000*41
$GPGLL,4857.64618,N,12302.97486,W,221404.00,A,D*7A
$GPGSA,A,3,30,28,07,13,08,11,05,27,17,,,,1.4,0.9,1.1*3C
$APHDM,080.10,M*0A
!AIVDM,1,1,,B,14eG;lP01No:6ehKu`Qad7n6PD0f,0*03
$GPGBS,221404.00,2.4,1.6,2.9,,,,*4A
$GPGSV,3,1,12,30,83,038,29,28,59,233,28,07,54,097,29,13,37,307,37*7B
!AIVDM,1,1,,B,D030pC@1HN?`0TO6Dm5O6D0,2*47
$SNAPB,A,A,0.0000,R,N,V,V,80.0000,M,001,80.0000,M,80.0000,M*16
$GPGSV,3,2,12,08,34,056,32,11,17,106,41,05,15,262,34,27,10,034,25*76
$GPRMC,221405.00,A,4857.64602,N,12302.97354,W,3.350,105.89,090416,,,D*75
$GPGSV,3,3,12,17,08,182,38,15,04,322,32,26,61,284,,03,44,071,*7E
$GPRMC,221406.000,A,4857.6451,N,12302.9732,W,3.35,107.92,090416,,,A*78
$GPGGA,221405.00,4857.64602,N,12302.97354,W,2,11,0.77,-5.9,M,-17.7,M,,0000*46
$APHDM,081.30,M*09
!AIVDM,1,1,,B,14eGpkh000G?=FpKqRjiSA>:1PSG,0*3A
$GPGLL,4857.64602,N,12302.97354,W,221405.00,A,D*78
$GPGGA,221407.000,4857.6448,N,12302.9719,W,1,09,0.9,-6.7,M,-16.9,M,,0000*47
$GPGBS,221405.00,2.4,1.6,2.9,,,,*4B
$GPGSA,A,3,30,28,07,13,08,11,05,27,17,,,,1.4,0.9,1.1*3C
$APHDM,081.30,M*09
!AIVDM,1,1,,B,14eGEC@018G<o4lKu1odtr:800Rd,0*07
$GPRMC,221407.000,A,4857.6448,N,12302.9719,W,3.05,110.54,090416,,,A*77
!AIVDM,1,1,,B,14eGMm@P00G<c7:L=4dH<Ov:0@3S,0*61
$SNAPB,A,A,0.0000,L,N,V,V,80.0000,M,001,80.0000,M,80.0000,M*08
$GPRMC,221406.00,A,4857.64585,N,12302.97222,W,3.294,103.40,090416,,,D*70
!AIVDM,1,1,,B,14eGM4OP1LG<Q;8L=3;c6?v:06hp,0*71
!AIVDO,1,1,,,B5NVsf008Mk;UC70?te0cwS5oP06,0*7E
$APHDM,080.50,M*0E
!AIVDM,1,1,,B,14eHHQ@000G<AKRL3Ew6mPr:0H3b,0*60
$GPGGA,221408.000,4857.6445,N,12302.9707,W,1,09,0.9,-6.8,M,-16.9,M,,0000*45
$GPGGA,221406.00,4857.64585,N,12302.97222,W,2,12,0.77,-6.0,M,-17.7,M,,0000*40
$GPGSA,A,3,30,28,07,13,08,11,05,27,17,,,,1.4,0.9,1.1*3C
!AIVDM,1,1,,B,14eG;th01vo;5alKp3Ce;JT<083l,0*5E
$GPGLL,4857.64585,N,12302.97222,W,221406.00,A,D*77
$GPRMC,221408.000,A,4857.6445,N,12302.9707,W,2.89,110.63,090416,,,A*7B
$APHDM,079.70,M*0A
$GPGBS,221406.00,2.4,1.6,2.8,,,,*49
$SNAPB,A,A,0.0000,R,N,V,V,80.0000,M,001,80.0000,M,80.0000,M*16
!AIVDM,1,1,,B,14eG;o@000o<F3VL2`QiNFl<20SO,0*36
$GPRMC,221407.00,A,4857.64569,N,12302.97089,W,3.150,109.37,090416,,,D*71
!AIVDM,1,1,,B,14eG;u002so<@;0L2DE`S6n<084<,0*3D
$APHDM,078.90,M*05
$GPGGA,221407.00,4857.64569,N,12302.97089,W,2,12,0.71,-6.4,M,-17.7,M,,0000*42
$GPGGA,221409.000,4857.6441,N,12302.9696,W,1,09,0.9,-6.8,M,-16.9,M,,0000*49
!AIVDM,1,1,,A,14eGeLhP00G=C<HL8cKb`gv>00Ra,0*1F
$GPGSA,A,3,30,28,07,13,08,11,05,27,17,,,,1.4,0.9,1.1*3C
$GPGLL,4857.64569,N,12302.97089,W,221407.00,A,D*77
$GPRMC,221409.000,A,4857.6441,N,12302.9696,W,3.03,110.12,090416,,,A*72
!AIVDM,1,1,,A,14eGpkh000G?=FpKqRjnDA>>1h4Q,0*64
$APHDM,078.50,M*09
$GPGBS,221407.00,2.3,1.6,2.7,,,,*40
$SNAPB,A,A,0.0000,L,N,V,V,80.0000,M,001,80.0000,M,80.0000,M*08
!AIVDM,1,1,,B,?03OvjAGPNI0D00,2*6D
$GPRMC,221408.00,A,4857.64547,N,12302.96980,W,2.997,111.76,090416,,,D*7D
!AIVDM,1,1,,A,14eGmkgP00G<6;DL6sqHn?vB284l,0*05
$APHDM,078.60,M*0A
!AIVDM,1,1,,A,14eGI<hP17G;Do`Kn5h7PwvB0@4p,0*15
$GPGGA,221410.000,4857.6438,N,12302.9683,W,1,09,0.9,-6.7,M,-16.9,M,,0000*44
$GPGSA,A,3,30,28,07,13,08,11,05,27,17,,,,1.4,0.9,1.1*3C
!AIVDM,2,1,9,B,54eG;i@00000<HgW?SPU<h4pB0=8uLp00000000l0p@1654<08mPCPkmEQDP,0*6B
!AIVDM,2,2,9,B,00000000000,2*2E
$GPRMC,221410.000,A,4857.6438,N,12302.9683,W,3.18,109.32,090416,,,A*70
$GPGLL,4857.64547,N,12302.96980,W,221408.00,A,D*75
$GPGBS,221408.00,2.3,1.6,2.7,,,,*4F
$SNAPB,A,A,0.0000,R,N,V,V,80.0000,M,001,80.0000,M,80.0000,M*16
!AIVDM,1,1,,A,34eG;lh01?o:`shKkne5bTT<0000,0*6C
$APHDM,079.10,M*0C
$GPRMC,221409.00,A,4857.64528,N,12302.96872,W,2.962,111.35,090416,,,D*74
$GPGLL,4857.64528,N,12302.96872,W,221409.00,A,D*71
$GPGBS,221409.00,2.2,1.5,2.7,,,,*4C
$APHDM,079.90,M*04
$GPGGA,221411.000,4857.6435,N,12302.9671,W,1,09,0.9,-6.6,M,-16.9,M,,0000*44
$GPGSA,A,3,30,28,07,13,08,11,05,27,17,,,,1.4,0.9,1.1*3C
$GPRMC,221410.00,A,4857.64498,N,12302.96757,W,3.147,111.05,090416,,,D*73
!AIVDO,1,1,,,B5NVsf007uk;Ub70?t95OwU5oP06,0*1B
$GPGSV,3,1,12,30,83,038,26,28,59,233,31,07,54,097,28,13,37,307,38*72
$GPGLL,4857.64498,N,12302.96757,W,221410.00,A,D*7B
$GPGBS,221410.00,2.2,1.5,2.7,,,,*44
$SNAPB,A,A,0.0000,L,N,V,V,80.0000,M,001,80.0000,M,80.0000,M*08
!AIVDM,1,1,,B,14eGLuwP00G<PjLL=2T84gvD0<3I,0*29
$GPGSV,3,2,12,08,34,056,37,11,17,106,41,05,15,262,32,27,10,034,33*72
$APHDM,080.60,M*0D
$GPGSV,3,3,12,17,08,182,35,15,04,322,28,48,33,193,26,26,61,284,*7E
!AIVDM,1,1,,B,34eH@`hOh8G<kQ8L=<27>S@D0000,0*00
$GPRMC,221411.000,A,4857.6435,N,12302.9671,W,3.22,108.84,090416,,,A*74
$GPRMC,221411.00,A,4857.64471,N,12302.96628,W,3.348,108.75,090416,,,D*7E
$GPGLL,4857.64471,N,12302.96628,W,221411.00,A,D*74
$GPGGA,221412.000,4857.6432,N,12302.9658,W,1,09,0.9,-6.7,M,-16.9,M,,0000*4A
$GPGBS,221411.00,2.2,1.5,2.6,,,,*44
$GPGSA,A,3,30,28,07,13,08,11,05,27,17,,,,1.4,0.9,1.1*3C
$APHDM,080.90,M*02
!AIVDM,1,1,,A,14eHHQ0P00o<MQLL=ovbV?vF2H6t,0*1F
!AIVDM,1,1,,B,15PTpF000?o>2s6KuFrCR40J2@6w,0*5C
$GPRMC,221412.000,A,4857.6432,N,12302.9658,W,3.35,108.41,090416,,,A*74
!AIVDM,1,1,,B,4030pCAv14n>;o;;NjL?3Po00@72,0*39
$SNAPB,A,A,0.0000,R,N,V,V,80.0000,M,001,80.0000,M,80.0000,M*16
!AIVDM,1,1,,B,4030pD1v14n>;o<L20L<nt700D2l,0*65
!AIVDM,1,1,,B,15N`tAW000G?>30KqP3hTABH00SB,0*27
$GPRMC,221412.00,A,4857.64443,N,12302.96498,W,3.233,109.19,090416,,,D*73
$APHDM,080.90,M*02
!AIVDO,1,1,,,B5NVsf008=k;Uo70?si4CwV5oP06,0*08
$GPGGA,221413.000,4857.6428,N,12302.9645,W,1,09,0.9,-6.7,M,-16.9,M,,0000*4C
!AIVDM,1,1,,A,14eGEEE018o;aV<L6P2q;WFH0@7A,0*2F
$GPGSA,A,3,30,28,07,13,08,11,05,27,17,,,,1.4,0.9,1.1*3C
!AIVDM,1,1,,B,14eHHSPP00o=wtTL:qA`>gvJ00St,0*77
$APHDM,081.00,M*0A
!AIVDM,1,1,,B,4030p7iv14n>;o:s4BKl@jW00H7F,0*27
$GPRMC,221413.000,A,4857.6428,N,12302.9645,W,3.09,108.39,090416,,,A*72
!AIVDM,1,1,,B,4030p81v14n><o;V:<KtT1G00D5g,0*4B
$SNAPB,A,A,0.0000,L,N,V,V,80.0000,M,001,80.0000,M,80.0000,M*08
$GPGLL,4857.64443,N,12302.96498,W,221412.00,A,D*7F
!AIVDM,1,1,,A,14eG;l001wG;OM4Ks0bACQ6H087M,0*6F
$GPGBS,221412.00,2.1,1.5,2.6,,,,*44
$APHDM,080.80,M*03
!AIVDM,1,1,,A,14eG;u002to<@1hL2CH8R6nH0D39,0*32
$GPGGA,221414.000,4857.6426,N,12302.9631,W,1,09,0.9,-6.3,M,-16.9,M,,0000*42
$GPRMC,221413.00,A,4857.64411,N,12302.96385,W,3.104,111.70,090416,,,D*7F
$GPGSA,A,3,30,28,07,13,08,11,05,27,17,,,,1.4,0.9,1.1*3C
!AIVDM,1,1,,A,D030p7ikTN?b<`N016DN000,2*4E
!AIVDM,1,1,,A,14eGNKP000o<chHL=6d5p1hL0<3u,0*4D
$GPRMC,221414.000,A,4857.6426,N,12302.9631,W,3.19,106.88,090416,,,A*7D
$APHDM,079.70,M*0A
!AIVDM,1,1,,A,15Mq48PP@?G>3@JKuDcTL6pL0@7v,0*17
$SNAPB,A,A,0.0000,R,N,V,V,80.0000,M,001,80.0000,M,80.0000,M*16
!AIVDM,1,1,,B,14eGHohP04G9B04L29RsMOvL0D3O,0*77
$GPGLL,4857.64411,N,12302.96385,W,221413.00,A,D*72
$GPGBS,221413.00,2.1,1.5,2.6,,,,*45
!AIVDM,1,1,,A,14eG;lP01No:6S8Ku`=afWnHP6hp,0*2A
$APHDM,079.20,M*0F
!AIVDM,1,1,,A,35PMGp1000o?7=:KkF<Rl8VLR000,0*4F
$GPGGA,221415.000,4857.6425,N,12302.9618,W,1,09,0.9,-6.2,M,-16.9,M,,0000*4A
!AIVDM,1,1,,A,14eGgch000o<OSBL<sfJTmnF0888,0*66
$GPGSA,A,3,30,28,07,13,08,11,05,27,17,,,,1.4,0.9,1.1*3C
$GPRMC,221414.00,A,4857.64386,N,12302.96274,W,2.956,110.28,090416,,,D*7C
$GPRMC,221415.000,A,4857.6425,N,12302.9618,W,3.06,106.13,090416,,,A*78
!AIVDM,1,1,,A,14eG;phP3:o8rR@L:a8jcwvL0<1s,0*69
$SNAPB,A,A,0.0000,L,N,V,V,80.0000,M,001,80.0000,M,80.0000,M*08
!AIVDO,1,1,,,B5NVsf007ek;V2W0?sM4wwW5oP06,0*70
$APHDM,079.10,M*0C
!AIVDM,1,1,,A,14eGMm@P00G<c76L=4da>wvL06hp,0*05
!AIVDM,1,1,,A,14eI18gP00G<FAFL=;WQ5OvL2@8R,0*1F
!AIVDM,1,1,,B,14eGdBh01Io9iq0L0N68nW2L20S8,0*68
!AIVDM,1,1,,A,14eG;r@038o;IU4L>w3`N6nJ0D2G,0*44
$APHDM,079.70,M*0A
$GPGGA,221416.000,4857.6423,N,12302.9606,W,1,09,0.9,-6.4,M,-16.9,M,,0000*46
!AIVDM,1,1,,A,34eH@`hOh7G<kPTL=<67<3BL00s@,0*3E
$GPGSA,A,3,30,28,07,13,08,11,05,27,17,,,,1.4,0.9,1.1*3C
$GPGLL,4857.64386,N,12302.96274,W,221414.00,A,D*73
$GPGBS,221414.00,2.0,1.4,2.6,,,,*42
$GPGSV,3,1,12,30,83,040,30,28,59,234,31,07,54,097,32,13,37,306,39*76
!AIVDM,1,1,,B,14eGMH@P01G<AI:L3EJo5gvJ088d,0*7A
$SNAPB,A,A,0.0000,R,N,V,V,80.0000,M,001,80.0000,M,80.0000,M*16
!AIVDM,1,1,,A,14eGLN0P0SG:P12L?NGlogvL06hp,0*14
$APHDM,080.90,M*02
$GPGSV,3,2,12,08,34,056,38,11,17,106,41,05,15,261,34,27,10,034,35*7E
$GPGSV,3,3,12,17,08,182,36,15,05,322,29,48,33,193,25,26,61,284,*7E
!AIVDM,1,1,,A,14eHHQ@001G<AKTL3EvQVPrL0D2f,0*46
$GPRMC,221416.000,A,4857.6423,N,12302.9606,W,3.25,106.25,090416,,,A*76
$GPRMC,221415.00,A,4857.64357,N,12302.96160,W,2.924,110.38,090416,,,D*73
!AIVDM,1,1,,A,D03Ot`AdlNfp00N01r0f9Ir8v9H,2*7F
$GPGGA,221417.000,4857.6420,N,12302.9593,W,1,09,0.9,-6.7,M,-16.9,M,,0000*48
!AIVDM,1,1,,B,14eGeM?P00G=FnPL9gSi2wvN00Sl,0*2D
$GPGSA,A,3,30,28,07,13,08,11,05,27,17,,,,1.4,0.9,1.1*3C
$APHDM,081.70,M*0D
!AIVDM,1,1,,A,ENkb9Ma9Q@@@@@@@@@@@@@@@@@@;W@2v=hvOP00003vP000,2*2A
$GPRMC,221417.000,A,4857.6420,N,12302.9593,W,3.00,105.57,090416,,,A*7A
!AIVDM,1,1,,A,14eGMEEP1HG=:phL88nbBgvL06hp,0*7C
$SNAPB,A,A,0.0000,L,N,V,V,80.0000,M,001,80.0000,M,80.0000,M*08
!AIVDM,1,1,,A,14eGMF@P0AG<koBL=?h66gvL06hp,0*33
$GPGLL,4857.64357,N,12302.96160,W,221415.00,A,D*78
!AIVDM,1,1,,A,34eG;lh01>o:a0LKkn7U`4TL011Q,0*4A
$APHDM,081.70,M*0D
!AIVDM,1,1,,A,14eGEC@017G<o0DKu2S<rr<L0<2d,0*58
$GPRMC,221416.00,A,4857.64333,N,12302.96040,W,2.993,108.58,090416,,,D*72
$GPGGA,221418.000,4857.6418,N,12302.9581,W,1,09,0.9,-7.0,M,-16.9,M,,0000*49
$GPGSA,A,3,30,28,07,13,08,11,05,27,17,,,,1.4,0.9,1.1*3C
!AIVDM,1,1,,A,14eG?2hP00G:gNTLCi003OvP0<1a,0*54
$APHDM,080.80,M*03
$GPGGA,221416.00,4857.64333,N,12302.96040,W,2,11,0.77,-6.2,M,-17.7,M,,0000*4C
$GPRMC,221418.000,A,4857.6418,N,12302.9581,W,3.19,107.35,090416,,,A*73
!AIVDO,1,1,,,B5NVsf007ek;V>70?s53sw`5oP06,0*50
$SNAPB,A,A,0.0000,R,N,V,V,80.0000,M,001,80.0000,M,80.0000,M*16
$GPGLL,4857.64333,N,12302.96040,W,221416.00,A,D*7A
!AIVDM,1,1,,A,34eGTqPP@:G:19FKumOnSCrR0000,0*2D
!AIVDM,2,1,0,B,55PMGp02=SsUMP4F221<uDpB18DhT4p<F222220OB@J<;52T0@5jC32@CH43,0*28
$APHDM,079.60,M*0B
!AIVDM,2,2,0,B,jCU80CPj3lP,2*15
$GPGGA,221419.000,4857.6414,N,12302.9568,W,1,09,0.9,-6.9,M,-16.9,M,,0000*4B
!AIVDM,1,1,,A,14eG;u@000o;3rfKo5vv3J0P08:1,0*47
$GPGSA,A,3,30,28,07,13,08,11,05,27,17,,,,1.4,0.9,1.1*3C
$GPRMC,221417.00,A,4857.64309,N,12302.95907,W,3.308,107.55,090416,,,D*78
$APHDM,078.20,M*0E
$GPRMC,221419.000,A,4857.6414,N,12302.9568,W,3.17,109.18,090416,,,A*76
!AIVDM,1,1,,A,14eG;o@000o<F3`L2`QU:nlR20Ru,0*36
!AIVDM,1,1,,B,B5Mtdr00DMk84b70:e6uWwa5WP06,0*1F
$SNAPB,A,A,0.0000,L,N,V,V,80.0000,M,001,80.0000,M,80.0000,M*08
!AIVDM,1,1,,A,14eG;th01vo;5RhKp4du:bTR0D2b,0*6E
$GPGLL,4857.64309,N,12302.95907,W,221417.00,A,D*7B
$APHDM,076.80,M*0A
!AIVDM,1,1,,B,14eGmkgP00G<6;DL6sqHlOvT28:V,0*56
$GPGGA,221420.000,4857.6410,N,12302.9556,W,1,09,0.9,-6.8,M,-16.9,M,,0000*49
$GPRMC,221418.00,A,4857.64277,N,12302.95782,W,3.222,109.67,090416,,,D*7A
$GPGSA,A,3,30,28,07,13,08,11,05,27,17,,,,1.4,0.9,1.1*3C
!AIVDO,1,1,,,B5NVsf008=k;VK70?ri4Wwa5oP06,0*0D
$GPGLL,4857.64277,N,12302.95782,W,221418.00,A,D*7F
$GPRMC,221420.000,A,4857.6410,N,12302.9556,W,3.00,108.94,090416,,,A*76
!AIVDM,1,1,,B,34eG;lhOi>o:a1dKkmuU`4VP0000,0*79
$APHDM,075.80,M*09
$SNAPB,A,A,0.0000,R,N,V,V,80.0000,M,001,80.0000,M,80.0000,M*16
!AIVDM,1,1,,A,14eHkEPP0Mo<FRrL=h14c?vT2<2O,0*79
!AIVDM,1,1,,B,14eGL:@P00o<s18L87g:5wvV06hp,0*2F
$GPRMC,221419.00,A,4857.64237,N,12302.95662,W,3.176,113.11,090416,,,D*78
!AIVDM,1,1,,B,85MwpHiKf<Q4j;e1IkAH7eeMD6b2HqJTdvg@iGRO=aGn`2TfJ0CT,0*18
$APHDM,075.70,M*06
$GPGGA,221421.000,4857.6408,N,12302.9544,W,1,09,0.9,-6.9,M,-16.9,M,,0000*43
!AIVDM,1,1,,B,14eG;u002uo<?obL2BE8Q6lV0<3<,0*75
$GPGSA,A,3,30,28,07,13,08,11,05,27,17,,,,1.4,0.9,1.1*3C
$GPGLL,4857.64237,N,12302.95662,W,221419.00,A,D*75
!AIVDM,1,1,,A,D030pCAQdN?b<`O6EpEO6D0,2*5F
$PSMDOV,1
$GPGSV,3,1,12,30,83,040,31,28,59,234,28,07,54,097,29,13,37,306,33*7F
$PSMDOV,1
!AIVDM,1,1,,A,D030pD1QdN?b<`N01riO6D0,2*75
$SNAPB,A,A,0.0000,L,N,V,V,80.0000,M,001,80.0000,M,80.0000,M*08
$PSMDOV,1
!AIVDM,1,1,,B,14eGmk@P0Ho;61vKnG=ec?vb06hp,0*25
$APHDM,076.40,M*06
$GPGSV,3,2,12,08,34,056,31,11,17,106,41,05,15,261,33,27,10,034,39*7C
$GPGSV,3,3,12,17,08,182,24,15,05,322,24,48,33,193,26,26,61,284,*73
!AIVDO,1,1,,,B5NVsf007uk;VW70?rE5Cwb5oP06,0*6C
$GPRMC,221421.000,A,4857.6408,N,12302.9544,W,2.78,108.37,090416,,,A*7A
$GPGLL,4857.64211,N,12302.95540,W,221420.00,A,D*78
